stop_id,stop_code,stop_name,stop_desc,stop_lat,stop_lon,zone_id,stop_url,location_type,parent_station,stop_timezone,wheelchair_boarding
66,66,4925 CRAIGWOOD/FM 969,Southeast corner of CRAIGWOOD and FM 969 - Nearside,30.284171,-97.659854,,http://www.capmetro.org/gismaps/stops/66.html,,,,0
252,252,200 TRINITY/2ND,Northeast corner of TRINITY and 2ND - Mid-Block,30.263842,-97.740427,,http://www.capmetro.org/gismaps/stops/252.html,,,,0
462,462,851 RUTLAND/PARK VILLAGE,Southeast corner of RUTLAND and PARK VILLAGE - Mid-Block,30.36547,-97.69752,,http://www.capmetro.org/gismaps/stops/462.html,,,,0
466,466,8740 LAMAR/PAYTON GIN,Southwest corner of LAMAR and PAYTON GIN - Mid-Block,30.356809,-97.701066,,http://www.capmetro.org/gismaps/stops/466.html,,,,0
467,467,8630 LAMAR/FAIRFIELD,Southwest corner of LAMAR and FAIRFIELD - Farside,30.355296,-97.703128,,http://www.capmetro.org/gismaps/stops/467.html,,,,0
468,468,LAMAR/THURMOND,Southwest corner of LAMAR and THURMOND - Farside,30.353139,-97.706082,,http://www.capmetro.org/gismaps/stops/468.html,,,,0
469,469,8320 LAMAR/MEADOWLARK,Northwest corner of LAMAR and MEADOWLARK - Nearside,30.352256,-97.707295,,http://www.capmetro.org/gismaps/stops/469.html,,,,0
471,471,7720 LAMAR/STOBAUGH,Southwest corner of LAMAR and STOBAUGH - Mid-Block,30.34604,-97.71394,,http://www.capmetro.org/gismaps/stops/471.html,,,,0
472,472,7520 LAMAR/MORROW,Southwest corner of LAMAR and MORROW - Mid-Block,30.343134,-97.715656,,http://www.capmetro.org/gismaps/stops/472.html,,,,0
474,474,6814 LAMAR/JUSTIN,Southwest corner of LAMAR and JUSTIN - Farside,30.336206,-97.720008,,http://www.capmetro.org/gismaps/stops/474.html,,,,0
475,475,6600 LAMAR/BRENTWOOD,Northwest corner of LAMAR and BRENTWOOD - Nearside,30.33411,-97.721323,,http://www.capmetro.org/gismaps/stops/475.html,,,,0
476,476,6200 LAMAR/DENSON,Northwest corner of LAMAR and DENSON - Nearside,30.330425,-97.723636,,http://www.capmetro.org/gismaps/stops/476.html,,,,0
478,478,5900 LAMAR/OLD KOENIG,Northwest corner of LAMAR and OLD KOENIG - Nearside,30.327928,-97.725215,,http://www.capmetro.org/gismaps/stops/478.html,,,,0
479,479,5702 LAMAR/KOENIG,Northwest corner of LAMAR and KOENIG - Nearside,30.326148,-97.726345,,http://www.capmetro.org/gismaps/stops/479.html,,,,0
480,480,5528 LAMAR/KOENIG,Southwest corner of LAMAR and KOENIG - Mid-Block,30.324249,-97.72753,,http://www.capmetro.org/gismaps/stops/480.html,,,,0
482,482,5300 LAMAR/NORTH LOOP,Northwest corner of LAMAR and NORTH LOOP - Nearside,30.321303,-97.729391,,http://www.capmetro.org/gismaps/stops/482.html,,,,0
483,483,5106 LAMAR/51ST,Northwest corner of LAMAR and 51ST - Nearside,30.31905,-97.730806,,http://www.capmetro.org/gismaps/stops/483.html,,,,0
484,484,TRIANGLE STATION (SB),Southwest corner of GUADALUPE and LAMAR - Mid-Block,30.314729,-97.732523,,http://www.capmetro.org/gismaps/stops/484.html,,,,0
485,485,4500 GUADALUPE/45TH,Northwest corner of GUADALUPE and 45TH - Nearside,30.311163,-97.732958,,http://www.capmetro.org/gismaps/stops/485.html,,,,0
486,486,GUADALUPE/43RD STREET,Northwest corner of GUADALUPE and 43RD - Nearside,30.308831,-97.734395,,http://www.capmetro.org/gismaps/stops/486.html,,,,1
487,487,GUADALUPE/41ST STREET,Northwest corner of GUADALUPE and 41ST - Nearside,30.306703,-97.735756,,http://www.capmetro.org/gismaps/stops/487.html,,,,1
489,489,GUADALUPE/MAIDEN,Northwest corner of GUADALUPE and MAIDEN - Nearside,30.301674,-97.73896,,http://www.capmetro.org/gismaps/stops/489.html,,,,0
490,490,GUADALUPE/34TH STREET,Northwest corner of GUADALUPE and 34TH - Nearside,30.300456,-97.739709,,http://www.capmetro.org/gismaps/stops/490.html,,,,0
492,492,GUADALUPE/30TH STREET,Northwest corner of GUADALUPE and 30TH - Nearside,30.296804,-97.742028,,http://www.capmetro.org/gismaps/stops/492.html,,,,0
494,494,GUADALUPE/27TH STREET,Northwest corner of GUADALUPE and 27TH - Nearside,30.292197,-97.74131,,http://www.capmetro.org/gismaps/stops/494.html,,,,0
495,495,GUADALUPE/26TH STREET,Northwest corner of GUADALUPE and 26TH - Nearside,30.290673,-97.741408,,http://www.capmetro.org/gismaps/stops/495.html,,,,0
497,497,UT WEST MALL STATION (SB),Southwest corner of GUADALUPE and 23RD - Mid-Block,30.286064,-97.741815,,http://www.capmetro.org/gismaps/stops/497.html,,,,0
498,498,GUADALUPE/W. 21ST STREET,Southwest corner of GUADALUPE and 21ST - Mid-Block,30.283384,-97.742081,,http://www.capmetro.org/gismaps/stops/498.html,,,,0
501,501,GUADALUPE/16TH STREET,Northwest corner of GUADALUPE and 16TH - Nearside,30.278962,-97.742708,,http://www.capmetro.org/gismaps/stops/501.html,,,,0
504,504,11TH/GUADALUPE,Southeast corner of 11TH and GUADALUPE - Farside,30.27353,-97.744198,,http://www.capmetro.org/gismaps/stops/504.html,,,,0
506,506,11TH/CONGRESS,Southwest corner of 11TH and CONGRESS - Nearside,30.2727,-97.741376,,http://www.capmetro.org/gismaps/stops/506.html,,,,0
507,507,NW CORNER CONGRESS/10TH,Northwest corner of CONGRESS and 10TH - Nearside,30.271905,-97.741543,,http://www.capmetro.org/gismaps/stops/507.html,,,,0
508,508,900 CONGRESS/9TH,Northwest corner of CONGRESS and 9TH - Nearside,30.270994,-97.741882,,http://www.capmetro.org/gismaps/stops/508.html,,,,0
511,511,600 CONGRESS/6TH,Northwest corner of CONGRESS and 6TH - Nearside,30.268192,-97.742953,,http://www.capmetro.org/gismaps/stops/511.html,,,,0
512,512,500 CONGRESS/5TH,Northwest corner of CONGRESS and 5TH - Nearside,30.267263,-97.743268,,http://www.capmetro.org/gismaps/stops/512.html,,,,0
513,513,CONGRESS/4TH STREET,Northwest corner of CONGRESS and 4TH - Nearside,30.266337,-97.743609,,http://www.capmetro.org/gismaps/stops/513.html,,,,0
514,514,CONGRESS/ 3RD STREET,Northwest corner of CONGRESS and 3RD - Nearside,30.265404,-97.74396,,http://www.capmetro.org/gismaps/stops/514.html,,,,0
515,515,CONGRESS/CESAR CHAVEZ,Northwest corner of CONGRESS and CESAR CHAVEZ - Nearside,30.263554,-97.744623,,http://www.capmetro.org/gismaps/stops/515.html,,,,0
516,516,300 SOUTH CONGRESS/BARTON SPRINGS,Southwest corner of CONGRESS and BARTON SPRINGS - Farside,30.2587,-97.746459,,http://www.capmetro.org/gismaps/stops/516.html,,,,0
517,517,612 CONGRESS/RIVERSIDE,Southwest corner of CONGRESS and RIVERSIDE - Mid-Block,30.255385,-97.747685,,http://www.capmetro.org/gismaps/stops/517.html,,,,1
522,522,2020 CONGRESS/CROCKETT,Northwest corner of CONGRESS and CROCKETT - Nearside,30.243058,-97.752263,,http://www.capmetro.org/gismaps/stops/522.html,,,,0
524,524,2300 CONGRESS/COLLEGE,Southwest corner of CONGRESS and COLLEGE - Farside,30.240333,-97.752905,,http://www.capmetro.org/gismaps/stops/524.html,,,,1
526,526,2622 CONGRESS/CUMBERLAND,Northwest corner of CONGRESS and CUMBERLAND - Nearside,30.235695,-97.756374,,http://www.capmetro.org/gismaps/stops/526.html,,,,0
527,527,2918 CONGRESS/LA VISTA,Northwest corner of CONGRESS and LA VISTA - Nearside,30.23259,-97.75853,,http://www.capmetro.org/gismaps/stops/527.html,,,,0
528,528,3216 CONGRESS/FREDERICK,Northwest corner of CONGRESS and FREDERICK - Nearside,30.23045,-97.75987,,http://www.capmetro.org/gismaps/stops/528.html,,,,0
529,529,CONGRESS/PICKLE,Southwest corner of CONGRESS and PICKLE - Farside,30.226936,-97.76191,,http://www.capmetro.org/gismaps/stops/529.html,,,,0
531,531,4210 CONGRESS/RADAM,Southwest corner of CONGRESS and RADAM - Mid-Block,30.220762,-97.765412,,http://www.capmetro.org/gismaps/stops/531.html,,,,1
532,532,4354 CONGRESS/ST ELMO,Northwest corner of CONGRESS and ST ELMO - Nearside,30.218437,-97.766885,,http://www.capmetro.org/gismaps/stops/532.html,,,,1
543,543,4722 CONGRESS/SHERATON,Southwest corner of CONGRESS and SHERATON - Mid-Block,30.214748,-97.769232,,http://www.capmetro.org/gismaps/stops/543.html,,,,1
545,545,5300 CONGRESS/RAMBLE,Southwest corner of CONGRESS and RAMBLE - Farside,30.208685,-97.773108,,http://www.capmetro.org/gismaps/stops/545.html,,,,0
546,546,5606 CONGRESS/SANDRA,Northwest corner of CONGRESS and SANDRA - Nearside,30.204263,-97.775141,,http://www.capmetro.org/gismaps/stops/546.html,,,,1
548,548,6220 CONGRESS/NORTH BLUFF,Northwest corner of CONGRESS and NORTH BLUFF - Nearside,30.199041,-97.776595,,http://www.capmetro.org/gismaps/stops/548.html,,,,0
550,550,115 WILLIAM CANNON/CIRCLE S,Southwest corner of WILLIAM CANNON and CIRCLE S - Nearside,30.192663,-97.777841,,http://www.capmetro.org/gismaps/stops/550.html,,,,0
551,551,409 WILLIAM CANNON/CIRCLE S,Southeast corner of WILLIAM CANNON and CIRCLE S - Mid-Block,30.192082,-97.776037,,http://www.capmetro.org/gismaps/stops/551.html,,,,1
552,552,601 WILLIAM CANNON/CIRCLE S,Southeast corner of WILLIAM CANNON and CIRCLE S - Mid-Block,30.191387,-97.77353,,http://www.capmetro.org/gismaps/stops/552.html,,,,0
553,553,NELMS/BLUFF SPRINGS,Southwest corner of NELMS and BLUFF SPRINGS - Nearside,30.192739,-97.765329,,http://www.capmetro.org/gismaps/stops/553.html,,,,0
554,554,BLUFF SPRINGS/WILLIAM CANNON,Northwest corner of BLUFF SPRINGS and WILLIAM CANNON - Nearside,30.189427,-97.767879,,http://www.capmetro.org/gismaps/stops/554.html,,,,0
555,555,412 WILLIAM CANNON/NORTH BLUFF,Northwest corner of WILLIAM CANNON and NORTH BLUFF - Mid-Block,30.191773,-97.774139,,http://www.capmetro.org/gismaps/stops/555.html,,,,0
556,556,110 WILLIAM CANNON/CIRCLE S,Northwest corner of WILLIAM CANNON and CIRCLE S - Farside,30.192971,-97.777955,,http://www.capmetro.org/gismaps/stops/556.html,,,,0
558,558,6319 CONGRESS/CIRCLE S,Northeast corner of CONGRESS and CIRCLE S - Mid-Block,30.197392,-97.776908,,http://www.capmetro.org/gismaps/stops/558.html,,,,0
559,559,LITTLE TEXAS STATION (NB),Southeast corner of CONGRESS and LITTLE TEXAS - Nearside,30.202125,-97.775516,,http://www.capmetro.org/gismaps/stops/559.html,,,,0
560,560,5405 CONGRESS/MOCKINGBIRD,Southeast corner of CONGRESS and MOCKINGBIRD - Nearside,30.207107,-97.773733,,http://www.capmetro.org/gismaps/stops/560.html,,,,1
565,565,4401 CONGRESS/ST ELMO,Southeast corner of CONGRESS and ST ELMO - Nearside,30.217378,-97.767251,,http://www.capmetro.org/gismaps/stops/565.html,,,,1
568,568,CONGRESS/ALPINE,Northeast corner of CONGRESS and ALPINE - Farside,30.228248,-97.760943,,http://www.capmetro.org/gismaps/stops/568.html,,,,0
569,569,3307 CONGRESS/WOODWARD,Northeast corner of CONGRESS and WOODWARD - Farside,30.230055,-97.759837,,http://www.capmetro.org/gismaps/stops/569.html,,,,1
571,571,2705 CONGRESS/CUMBERLAND,Southeast corner of CONGRESS and CUMBERLAND - Nearside,30.235347,-97.75633,,http://www.capmetro.org/gismaps/stops/571.html,,,,0
573,573,2203 CONGRESS/LIVE OAK,Southeast corner of CONGRESS and LIVE OAK - Nearside,30.241689,-97.752423,,http://www.capmetro.org/gismaps/stops/573.html,,,,0
574,574,1901 CONGRESS/MARY,Southeast corner of CONGRESS and MARY - Nearside,30.245024,-97.751212,,http://www.capmetro.org/gismaps/stops/574.html,,,,1
576,576,CONGRESS/THE CIRCLE,Northeast corner of CONGRESS and THE CIRCLE - Mid-Block,30.251531,-97.748789,,http://www.capmetro.org/gismaps/stops/576.html,,,,0
577,577,611 CONGRESS/ACADEMY,Northeast corner of CONGRESS and ACADEMY - Mid-Block,30.25534,-97.74739,,http://www.capmetro.org/gismaps/stops/577.html,,,,0
578,578,101 CONGRESS/2ND,Southeast corner of CONGRESS and 2ND - Nearside,30.264174,-97.744098,,http://www.capmetro.org/gismaps/stops/578.html,,,,0
579,579,CONGRESS/3RD,Southeast corner of CONGRESS and 3RD - Nearside,30.265113,-97.743741,,http://www.capmetro.org/gismaps/stops/579.html,,,,0
580,580,CONGRESS/4TH,Southeast corner of CONGRESS and 4TH - Nearside,30.266052,-97.74339,,http://www.capmetro.org/gismaps/stops/580.html,,,,0
581,581,425 CONGRESS/5TH,Southeast corner of CONGRESS and 5TH - Nearside,30.266975,-97.743044,,http://www.capmetro.org/gismaps/stops/581.html,,,,0
584,584,CONGRESS/8TH,Southeast corner of CONGRESS and 8TH - Nearside,30.26978,-97.742005,,http://www.capmetro.org/gismaps/stops/584.html,,,,0
585,585,823 CONGRESS/9TH,Southeast corner of CONGRESS and 9TH - Nearside,30.270713,-97.741662,,http://www.capmetro.org/gismaps/stops/585.html,,,,0
590,590,LAVACA/12TH,Southeast corner of LAVACA and 12TH - Nearside,30.274408,-97.742995,,http://www.capmetro.org/gismaps/stops/590.html,,,,0
591,591,CAPITOL STATION (NB),Southeast corner of LAVACA and 13TH - Nearside,30.275587,-97.742558,,http://www.capmetro.org/gismaps/stops/591.html,,,,0
593,593,LAVACA/15TH,Southeast corner of LAVACA and 15TH - Nearside,30.277383,-97.741894,,http://www.capmetro.org/gismaps/stops/593.html,,,,1
596,596,GUADALUPE/20TH,Southeast corner of GUADALUPE and 20TH - Nearside,30.282583,-97.741932,,http://www.capmetro.org/gismaps/stops/596.html,,,,0
598,598,GUADALUPE/24TH,Southeast corner of GUADALUPE and 24TH - Nearside,30.287499,-97.741456,,http://www.capmetro.org/gismaps/stops/598.html,,,,0
599,599,GUADALUPE/DEAN KEETON,Southeast corner of GUADALUPE and DEAN KEETON - Nearside,30.289566,-97.741303,,http://www.capmetro.org/gismaps/stops/599.html,,,,0
602,602,GUADALUPE/30TH,Southeast corner of GUADALUPE and 30TH - Nearside,30.29639,-97.74203,,http://www.capmetro.org/gismaps/stops/602.html,,,,1
603,603,3101 GUADALUPE/31ST,Southeast corner of GUADALUPE and 31ST - Nearside,30.297781,-97.741153,,http://www.capmetro.org/gismaps/stops/603.html,,,,1
604,604,GUADALUPE/34TH,Southeast corner of GUADALUPE and 34TH - Nearside,30.300181,-97.739637,,http://www.capmetro.org/gismaps/stops/604.html,,,,0
605,605,GUADALUPE/38TH,Southeast corner of GUADALUPE and 38TH - Nearside,30.302526,-97.738152,,http://www.capmetro.org/gismaps/stops/605.html,,,,0
606,606,HYDE PARK STATION (NB),Northeast corner of GUADALUPE and 39TH - Farside,30.304429,-97.736954,,http://www.capmetro.org/gismaps/stops/606.html,,,,0
607,607,GUADALUPE/41ST,Southeast corner of GUADALUPE and 41ST - Nearside,30.306234,-97.735787,,http://www.capmetro.org/gismaps/stops/607.html,,,,0
608,608,GUADALUPE/43RD,Southeast corner of GUADALUPE and 43RD - Nearside,30.3085,-97.73434,,http://www.capmetro.org/gismaps/stops/608.html,,,,0
609,609,4413 GUADALUPE/45TH,Southeast corner of GUADALUPE and 45TH - Nearside,30.31073,-97.73293,,http://www.capmetro.org/gismaps/stops/609.html,,,,0
610,610,TRIANGLE STATION (NB),Northeast corner of GUADALUPE and 46TH - Mid-Block,30.314907,-97.732257,,http://www.capmetro.org/gismaps/stops/610.html,,,,0
611,611,5007 LAMAR/51ST,Southeast corner of LAMAR and 51ST - Nearside,30.318411,-97.730947,,http://www.capmetro.org/gismaps/stops/611.html,,,,0
612,612,5301 LAMAR/NORTH LOOP,Northeast corner of LAMAR and NORTH LOOP - Farside,30.321319,-97.729097,,http://www.capmetro.org/gismaps/stops/612.html,,,,0
613,613,5419 LAMAR/NELRAY,Southeast corner of LAMAR and NELRAY - Nearside,30.32278,-97.72819,,http://www.capmetro.org/gismaps/stops/613.html,,,,0
614,614,5555 LAMAR/NELRAY,Northeast corner of LAMAR and NELRAY - Mid-Block,30.324086,-97.727368,,http://www.capmetro.org/gismaps/stops/614.html,,,,0
615,615,5827 LAMAR/KOENIG,Southeast corner of LAMAR and KOENIG - Nearside,30.325644,-97.726371,,http://www.capmetro.org/gismaps/stops/615.html,,,,0
617,617,6201 LAMAR/DENSON,Southeast corner of LAMAR and DENSON - Nearside,30.330181,-97.723533,,http://www.capmetro.org/gismaps/stops/617.html,,,,1
618,618,6541 LAMAR/BRENTWOOD,Southeast corner of LAMAR and BRENTWOOD - Nearside,30.33387,-97.72121,,http://www.capmetro.org/gismaps/stops/618.html,,,,0
619,619,6901 LAMAR/JUSTIN,Southeast corner of LAMAR and JUSTIN - Nearside,30.336541,-97.719511,,http://www.capmetro.org/gismaps/stops/619.html,,,,0
620,620,7200 LAMAR/ST JOHNS,Northwest corner of LAMAR and ST JOHNS - Nearside,30.339577,-97.717914,,http://www.capmetro.org/gismaps/stops/620.html,,,,0
622,622,7545 LAMAR/MORROW,Southeast corner of LAMAR and MORROW - Nearside,30.34385,-97.71492,,http://www.capmetro.org/gismaps/stops/622.html,,,,0
623,623,8071 LAMAR/RESEARCH,Northeast corner of LAMAR and RESEARCH - Mid-Block,30.348283,-97.711558,,http://www.capmetro.org/gismaps/stops/623.html,,,,0
624,624,8415 LAMAR/THURMOND,Southeast corner of LAMAR and THURMOND - Nearside,30.353121,-97.70573,,http://www.capmetro.org/gismaps/stops/624.html,,,,0
626,626,8631 LAMAR/ELLIOTT,Southeast corner of LAMAR and ELLIOTT - Nearside,30.355174,-97.702927,,http://www.capmetro.org/gismaps/stops/626.html,,,,0
627,627,8745 LAMAR/DEEN,Southeast corner of LAMAR and DEEN - Nearside,30.356405,-97.70124,,http://www.capmetro.org/gismaps/stops/627.html,,,,0
628,628,8911 LAMAR/CARPENTER,Southeast corner of LAMAR and CARPENTER - Nearside,30.358138,-97.699627,,http://www.capmetro.org/gismaps/stops/628.html,,,,0
631,631,LOTT/CHICO,Northwest corner of LOTT and CHICO - Nearside,30.26882,-97.68306,,http://www.capmetro.org/gismaps/stops/631.html,,,,0
632,632,3810 OAK SPRINGS/SPRINGDALE,Northwest corner of OAK SPRINGS and SPRINGDALE - Farside,30.273662,-97.69085,,http://www.capmetro.org/gismaps/stops/632.html,,,,0
633,633,3700 OAK SPRINGS/SPRINGDALE,Northwest corner of OAK SPRINGS and SPRINGDALE - Mid-Block,30.273773,-97.692771,,http://www.capmetro.org/gismaps/stops/633.html,,,,0
634,634,3200 OAK SPRINGS/AIRPORT,Northwest corner of OAK SPRINGS and AIRPORT - Farside,30.27361,-97.69835,,http://www.capmetro.org/gismaps/stops/634.html,,,,0
635,635,OAK SPRINGS/RIDGEWAY,Northeast corner of OAK SPRINGS and RIDGEWAY - Nearside,30.272556,-97.704568,,http://www.capmetro.org/gismaps/stops/635.html,,,,0
636,636,2600 ROSEWOOD/RIDGEWAY,Northwest corner of ROSEWOOD and RIDGEWAY - Mid-Block,30.272509,-97.706241,,http://www.capmetro.org/gismaps/stops/636.html,,,,0
637,637,2420 ROSEWOOD/BEDFORD,Northwest corner of ROSEWOOD and BEDFORD - Farside,30.272319,-97.708296,,http://www.capmetro.org/gismaps/stops/637.html,,,,0
638,638,2370 ROSEWOOD/HARGRAVE,Northwest corner of ROSEWOOD and HARGRAVE - Mid-Block,30.271236,-97.710649,,http://www.capmetro.org/gismaps/stops/638.html,,,,0
642,642,ROSEWOOD/SAN BERNARD,Northeast corner of ROSEWOOD and SAN BERNARD - Nearside,30.268756,-97.725507,,http://www.capmetro.org/gismaps/stops/642.html,,,,1
645,645,E. 11TH/SABINE,Northeast corner of 11TH and SABINE - Nearside,30.270893,-97.734212,,http://www.capmetro.org/gismaps/stops/645.html,,,,0
650,650,COLORADO/9TH,Northwest corner of COLORADO and 9TH - Nearside,30.271366,-97.743155,,http://www.capmetro.org/gismaps/stops/650.html,,,,0
652,652,BRAZOS/6TH,Southeast corner of BRAZOS and 6TH - Nearside,30.267481,-97.741464,,http://www.capmetro.org/gismaps/stops/652.html,,,,0
657,657,907 11TH/BRANCH,Southeast corner of 11TH and BRANCH - Farside,30.26986,-97.731241,,http://www.capmetro.org/gismaps/stops/657.html,,,,0
658,658,11TH/WALLER,Southwest corner of 11TH and WALLER - Nearside,30.269272,-97.729677,,http://www.capmetro.org/gismaps/stops/658.html,,,,0
659,659,1201 11TH/LYDIA,Southeast corner of 11TH and LYDIA - Farside,30.268613,-97.72782,,http://www.capmetro.org/gismaps/stops/659.html,,,,0
660,660,1213 ROSEWOOD/SAN BERNARD,Southwest corner of ROSEWOOD and SAN BERNARD - Mid-Block,30.26853,-97.726049,,http://www.capmetro.org/gismaps/stops/660.html,,,,0
661,661,1319 ROSEWOOD/ANGELINA,Southwest corner of ROSEWOOD and ANGELINA - Nearside,30.26878,-97.72446,,http://www.capmetro.org/gismaps/stops/661.html,,,,0
663,663,1909 ROSEWOOD/CHICON,Southeast corner of ROSEWOOD and CHICON - Farside,30.269696,-97.718601,,http://www.capmetro.org/gismaps/stops/663.html,,,,1
664,664,ROSEWOOD/NORTHWESTERN,Southwest corner of ROSEWOOD and NORTHWESTERN - Nearside,30.27,-97.71674,,http://www.capmetro.org/gismaps/stops/664.html,,,,1
665,665,2365 ROSEWOOD/HARGRAVE,Southwest corner of ROSEWOOD and HARGRAVE - Nearside,30.270988,-97.71088,,http://www.capmetro.org/gismaps/stops/665.html,,,,0
666,666,ROSEWOOD/WEBBERVILLE,Southwest corner of ROSEWOOD and WEBBERVILLE - Nearside,30.272357,-97.705144,,http://www.capmetro.org/gismaps/stops/666.html,,,,0
667,667,2807 OAK SPRINGS/WEBBERVILLE,Southeast corner of OAK SPRINGS and WEBBERVILLE - Mid-Block,30.272787,-97.702321,,http://www.capmetro.org/gismaps/stops/667.html,,,,0
668,668,3201 OAK SPRINGS/AIRPORT,Southwest corner of OAK SPRINGS and AIRPORT - Nearside,30.273434,-97.698427,,http://www.capmetro.org/gismaps/stops/668.html,,,,0
669,669,OAK SPRINGS/SPRINGDALE,Southeast corner of OAK SPRINGS and SPRINGDALE - Mid-Block,30.273525,-97.691318,,http://www.capmetro.org/gismaps/stops/669.html,,,,0
670,670,LEDESMA/SPRINGDALE,Southeast corner of LEDESMA and SPRINGDALE - Farside,30.273803,-97.689827,,http://www.capmetro.org/gismaps/stops/670.html,,,,1
671,671,4903 LEDESMA/MENDOZA,Southeast corner of LEDESMA and MENDOZA - Farside,30.2727,-97.68749,,http://www.capmetro.org/gismaps/stops/671.html,,,,0
672,672,LEDESMA/RICHARDINE,Southwest corner of LEDESMA and RICHARDINE - Nearside,30.271907,-97.685679,,http://www.capmetro.org/gismaps/stops/672.html,,,,1
673,673,LEDESMA/CESSAL,Southwest corner of LEDESMA and CESSAL - Nearside,30.271221,-97.684066,,http://www.capmetro.org/gismaps/stops/673.html,,,,1
674,674,NORTHCROSS TRANSFER CENTER,Southwest corner of NORTHCROSS and FOSTER - Mid-Block,30.35361,-97.73592,,http://www.capmetro.org/gismaps/stops/674.html,,,,0
675,675,7500 BURNET/RICHCREEK,Northwest corner of BURNET and RICHCREEK - Nearside,30.35066,-97.734362,,http://www.capmetro.org/gismaps/stops/675.html,,,,0
678,678,BURNET/TWIN OAKS DR.,Northwest corner of BURNET and TWIN OAKS - Nearside,30.342693,-97.738671,,http://www.capmetro.org/gismaps/stops/678.html,,,,1
683,683,BURNET/LAWNMONT,Northwest corner of BURNET and LAWNMONT - Nearside,30.328167,-97.739865,,http://www.capmetro.org/gismaps/stops/683.html,,,,0
684,684,NORTH LOOP STATION (SB),Southwest corner of BURNET and NORTH LOOP - Farside,30.324956,-97.739679,,http://www.capmetro.org/gismaps/stops/684.html,,,,0
685,685,BURNET/HANCOCK,Northwest corner of BURNET and HANCOCK - Nearside,30.322213,-97.739436,,http://www.capmetro.org/gismaps/stops/685.html,,,,0
686,686,BURNET/W. 49TH,Northwest corner of BURNET and 49TH - Nearside,30.320333,-97.739313,,http://www.capmetro.org/gismaps/stops/686.html,,,,0
687,687,BURNET/W. 47TH,Northwest corner of BURNET and 47TH - Nearside,30.318126,-97.739952,,http://www.capmetro.org/gismaps/stops/687.html,,,,0
688,688,BURNET/W. 45TH,Northwest corner of BURNET and 45TH - Nearside,30.315528,-97.741621,,http://www.capmetro.org/gismaps/stops/688.html,,,,0
689,689,4214 MEDICAL PARKWAY/43RD,Northwest corner of MEDICAL and 43RD - Nearside,30.312474,-97.742371,,http://www.capmetro.org/gismaps/stops/689.html,,,,0
690,690,4112 MEDICAL PARKWAY/42ND,Southwest corner of MEDICAL and 42ND - Farside,30.310901,-97.742667,,http://www.capmetro.org/gismaps/stops/690.html,,,,0
691,691,MEDICAL PKWY/W. 40TH,Northwest corner of MEDICAL and 40TH - Nearside,30.308566,-97.742745,,http://www.capmetro.org/gismaps/stops/691.html,,,,0
692,692,3810 MEDICAL PARKWAY/39TH,Southwest corner of MEDICAL and 39TH - Mid-Block,30.30629,-97.743842,,http://www.capmetro.org/gismaps/stops/692.html,,,,0
695,695,3120 LAMAR/32ND,Northwest corner of LAMAR and 32ND - Nearside,30.301236,-97.74574,,http://www.capmetro.org/gismaps/stops/695.html,,,,0
710,710,COLORADO/8TH,Northwest corner of COLORADO and 8TH - Nearside,30.270427,-97.7435,,http://www.capmetro.org/gismaps/stops/710.html,,,,0
716,716,704 CESAR CHAVEZ/SAN ANTONIO,Northwest corner of CESAR CHAVEZ and SAN ANTONIO - Mid-Block,30.265741,-97.752406,,http://www.capmetro.org/gismaps/stops/716.html,,,,0
717,717,B R REYNOLDS/LAMAR,Southwest corner of B R REYNOLDS and LAMAR - Nearside,30.267402,-97.756576,,http://www.capmetro.org/gismaps/stops/717.html,,,,0
722,722,1414 LAMAR/CINCO,Northwest corner of LAMAR and CINCO - Nearside,30.252465,-97.764114,,http://www.capmetro.org/gismaps/stops/722.html,,,,0
726,726,2506 LAMAR/LA CASA,Northwest corner of LAMAR and LA CASA - Nearside,30.246312,-97.77873,,http://www.capmetro.org/gismaps/stops/726.html,,,,0
728,728,2806 MANCHACA/LIGHTSEY,Northwest corner of MANCHACA and LIGHTSEY - Nearside,30.243035,-97.781628,,http://www.capmetro.org/gismaps/stops/728.html,,,,1
729,729,3204 MANCHACA/GLEN ALLEN,Southwest corner of MANCHACA and GLEN ALLEN - Farside,30.240345,-97.782242,,http://www.capmetro.org/gismaps/stops/729.html,,,,0
730,730,3624 MANCHACA/LARCHMONT,Southwest corner of MANCHACA and LARCHMONT - Mid-Block,30.237452,-97.783568,,http://www.capmetro.org/gismaps/stops/730.html,,,,0
732,732,3906 MANCHACA/PRATHER,Northwest corner of MANCHACA and PRATHER - Nearside,30.233969,-97.785765,,http://www.capmetro.org/gismaps/stops/732.html,,,,0
733,733,4308 MANCHACA/BEN WHITE,Northwest corner of MANCHACA and BEN WHITE - Nearside,30.230504,-97.788112,,http://www.capmetro.org/gismaps/stops/733.html,,,,0
734,734,4430 MANCHACA/REDD,Northwest corner of MANCHACA and REDD - Nearside,30.228464,-97.78938,,http://www.capmetro.org/gismaps/stops/734.html,,,,0
735,735,4616 MANCHACA/FOREST HILL,Northwest corner of MANCHACA and FOREST HILL - Nearside,30.225991,-97.790916,,http://www.capmetro.org/gismaps/stops/735.html,,,,0
736,736,4804 MANCHACA/FRONTIER,Southwest corner of MANCHACA and FRONTIER - Farside,30.223743,-97.792347,,http://www.capmetro.org/gismaps/stops/736.html,,,,0
737,737,5000 MANCHACA/JONES,Northwest corner of MANCHACA and JONES - Nearside,30.220975,-97.794067,,http://www.capmetro.org/gismaps/stops/737.html,,,,0
739,739,5322 MANCHACA/INVERNESS,Southwest corner of MANCHACA and INVERNESS - Farside,30.217803,-97.795995,,http://www.capmetro.org/gismaps/stops/739.html,,,,0
740,740,5532 MANCHACA/STASSNEY,Northwest corner of MANCHACA and STASSNEY - Nearside,30.216058,-97.797163,,http://www.capmetro.org/gismaps/stops/740.html,,,,0
742,742,5720 MANCHACA/WHITESTONE,Southwest corner of MANCHACA and WHITESTONE - Mid-Block,30.214391,-97.799519,,http://www.capmetro.org/gismaps/stops/742.html,,,,0
743,743,6212 MANCHACA/BERKETT,Northwest corner of MANCHACA and BERKETT - Nearside,30.210671,-97.803629,,http://www.capmetro.org/gismaps/stops/743.html,,,,0
744,744,6372 MANCHACA/BERKELEY,Northwest corner of MANCHACA and BERKELEY - Nearside,30.208952,-97.804711,,http://www.capmetro.org/gismaps/stops/744.html,,,,0
745,745,6514 MANCHACA/MILES,Northwest corner of MANCHACA and MILES - Nearside,30.207078,-97.80593,,http://www.capmetro.org/gismaps/stops/745.html,,,,0
746,746,MANCHACA/WILLIAM CANNON SW CORNER,Southwest corner of MANCHACA and WILLIAM CANNON - Mid-Block,30.202031,-97.807163,,http://www.capmetro.org/gismaps/stops/746.html,,,,0
750,750,MANCHACA/WILLIAM CANNON SE CORNER,Southeast corner of MANCHACA and WILLIAM CANNON - Nearside,30.202687,-97.806816,,http://www.capmetro.org/gismaps/stops/750.html,,,,1
751,751,6601 MANCHACA/MILES,Southeast corner of MANCHACA and MILES - Nearside,30.206901,-97.805837,,http://www.capmetro.org/gismaps/stops/751.html,,,,0
752,752,6305 MANCHACA/BERKELEY,Northeast corner of MANCHACA and BERKELEY - Mid-Block,30.209018,-97.804497,,http://www.capmetro.org/gismaps/stops/752.html,,,,0
753,753,6213 MANCHACA/BERKETT,Northeast corner of MANCHACA and BERKETT - Farside,30.210561,-97.803515,,http://www.capmetro.org/gismaps/stops/753.html,,,,0
754,754,6001 MANCHACA/INDEPENDENCE,Northeast corner of MANCHACA and INDEPENDENCE - Mid-Block,30.21281,-97.801883,,http://www.capmetro.org/gismaps/stops/754.html,,,,0
755,755,5701 MANCHACA/WHITESTONE,Southeast corner of MANCHACA and WHITESTONE - Nearside,30.214491,-97.798856,,http://www.capmetro.org/gismaps/stops/755.html,,,,0
758,758,5309 MANCHACA/FAIR OAKS,Southeast corner of MANCHACA and FAIR OAKS - Nearside,30.219059,-97.794998,,http://www.capmetro.org/gismaps/stops/758.html,,,,0
764,764,4301 MANCHACA/FORT VIEW,Southeast corner of MANCHACA and FORT VIEW - Nearside,30.23086,-97.787599,,http://www.capmetro.org/gismaps/stops/764.html,,,,0
765,765,3909 MANCHACA/PRATHER,Northeast corner of MANCHACA and PRATHER - Farside,30.234049,-97.785514,,http://www.capmetro.org/gismaps/stops/765.html,,,,0
767,767,3505 MANCHACA/LARCHMONT,Southeast corner of MANCHACA and LARCHMONT - Nearside,30.238295,-97.782915,,http://www.capmetro.org/gismaps/stops/767.html,,,,0
768,768,3201 MANCHACA/GLEN ALLEN,Southeast corner of MANCHACA and GLEN ALLEN - Nearside,30.240512,-97.782084,,http://www.capmetro.org/gismaps/stops/768.html,,,,0
769,769,2831 MANCHACA/LIGHTSEY,Northeast corner of MANCHACA and LIGHTSEY - Farside,30.242965,-97.781472,,http://www.capmetro.org/gismaps/stops/769.html,,,,0
771,771,2639 LAMAR/DICKSON,Northeast corner of LAMAR and DICKSON - Farside,30.245377,-97.779693,,http://www.capmetro.org/gismaps/stops/771.html,,,,0
772,772,2401 LAMAR/BLUEBONNET,Southwest corner of LAMAR and BLUEBONNET - Nearside,30.246752,-97.777395,,http://www.capmetro.org/gismaps/stops/772.html,,,,0
773,773,2201 LAMAR/KINNEY,Southwest corner of LAMAR and KINNEY - Nearside,30.247279,-97.774278,,http://www.capmetro.org/gismaps/stops/773.html,,,,0
776,776,1417 LAMAR/CINCO,Southeast corner of LAMAR and CINCO - Nearside,30.252289,-97.763972,,http://www.capmetro.org/gismaps/stops/776.html,,,,0
777,777,LAMAR SQUARE STATION (NB),Southeast corner of LAMAR and LAMAR SQUARE - Nearside,30.253982,-97.762626,,http://www.capmetro.org/gismaps/stops/777.html,,,,1
781,781,BARTON SPRINGS STATION (NB),Southeast corner of LAMAR and BUTLER - Nearside,30.261935,-97.75792,,http://www.capmetro.org/gismaps/stops/781.html,,,,0
784,784,BRAZOS/3RD,Southeast corner of BRAZOS and 3RD - Nearside,30.264681,-97.742484,,http://www.capmetro.org/gismaps/stops/784.html,,,,0
806,806,3105 LAMAR/31ST,Northeast corner of LAMAR and 31ST - Mid-Block,30.30053,-97.745954,,http://www.capmetro.org/gismaps/stops/806.html,,,,0
807,807,3317 LAMAR/34TH,Southeast corner of LAMAR and 34TH - Nearside,30.302553,-97.744683,,http://www.capmetro.org/gismaps/stops/807.html,,,,0
809,809,38TH/MEDICAL PKWY,Northeast corner of 38TH and MEDICAL - Nearside,30.305686,-97.743879,,http://www.capmetro.org/gismaps/stops/809.html,,,,0
811,811,MEDICAL PKWY/41ST,Southeast corner of MEDICAL and 41ST - Nearside,30.309731,-97.742576,,http://www.capmetro.org/gismaps/stops/811.html,,,,0
813,813,MEDICAL PKWY/44TH,Northeast corner of MEDICAL and 44TH - Farside,30.314054,-97.741916,,http://www.capmetro.org/gismaps/stops/813.html,,,,0
814,814,BURNET/45TH,Northeast corner of BURNET and 45TH - Mid-Block,30.316,-97.741026,,http://www.capmetro.org/gismaps/stops/814.html,,,,0
815,815,BURNET/49TH,Southeast corner of BURNET and 49TH - Nearside,30.320494,-97.739145,,http://www.capmetro.org/gismaps/stops/815.html,,,,0
816,816,5011 BURNET/HANCOCK,Southeast corner of BURNET and HANCOCK - Nearside,30.321766,-97.739242,,http://www.capmetro.org/gismaps/stops/816.html,,,,0
817,817,NORTH LOOP STATION (NB),Southeast corner of BURNET and NORTH - Mid-Block,30.324792,-97.739456,,http://www.capmetro.org/gismaps/stops/817.html,,,,1
819,819,BURNET/HOUSTON,Southeast corner of BURNET and HOUSTON - Nearside,30.328766,-97.739742,,http://www.capmetro.org/gismaps/stops/819.html,,,,0
820,820,BURNET/ADAMS,Northeast corner of BURNET and ADAMS - Farside,30.330446,-97.739876,,http://www.capmetro.org/gismaps/stops/820.html,,,,1
821,821,5621 BURNET/NORTHLAND,Southeast corner of BURNET and NORTHLAND - Nearside,30.332384,-97.739997,,http://www.capmetro.org/gismaps/stops/821.html,,,,0
822,822,KOENIG WEST STATION (NB),Southeast corner of BURNET and KOENIG - Nearside,30.33425,-97.739823,,http://www.capmetro.org/gismaps/stops/822.html,,,,0
824,824,6425 BURNET/WHITEHORSE,Northeast corner of BURNET and WHITEHORSE - Mid-Block,30.33997,-97.7389,,http://www.capmetro.org/gismaps/stops/824.html,,,,1
825,825,6601 BURNET/TWIN OAKS,Northeast corner of BURNET and TWIN OAKS - Farside,30.342154,-97.738558,,http://www.capmetro.org/gismaps/stops/825.html,,,,1
826,826,JUSTIN STATION (NB),Southeast corner of BURNET and JUSTIN - Nearside,30.34528,-97.73749,,http://www.capmetro.org/gismaps/stops/826.html,,,,1
827,827,BURNET/GREENLAWN PKWY,Northeast corner of BURNET and GREENLAWN - Mid-Block,30.34851,-97.73545,,http://www.capmetro.org/gismaps/stops/827.html,,,,1
828,828,7439 BURNET/RICHCREEK,Southeast corner of BURNET and RICHCREEK - Nearside,30.3504,-97.73424,,http://www.capmetro.org/gismaps/stops/828.html,,,,0
829,829,NORTHCROSS STATION (NB),Northeast corner of BURNET and ST JOSEPH - Mid-Block,30.354005,-97.731978,,http://www.capmetro.org/gismaps/stops/829.html,,,,0
831,831,ACC RIVERSIDE CAMPUS STOP,Northwest corner of ACC and GROVE - Mid-Block,30.236214,-97.704856,,http://www.capmetro.org/gismaps/stops/831.html,,,,0
832,832,HOGAN/COMMUNITY,Southwest corner of HOGAN and COMMUNITY - Nearside,30.236459,-97.701552,,http://www.capmetro.org/gismaps/stops/832.html,,,,1
833,833,HOGAN/MONTOPOLIS,Southwest corner of HOGAN and MONTOPOLIS - Nearside,30.234554,-97.697478,,http://www.capmetro.org/gismaps/stops/833.html,,,,0
834,834,1214 MONTOPOLIS/LARCH,Northwest corner of MONTOPOLIS and LARCH - Nearside,30.232434,-97.698769,,http://www.capmetro.org/gismaps/stops/834.html,,,,0
836,836,1501 VARGAS/RIVERSIDE,Northeast corner of VARGAS and RIVERSIDE - Farside,30.22448,-97.700685,,http://www.capmetro.org/gismaps/stops/836.html,,,,0
837,837,1413 VARGAS/CRUZ,Southeast corner of VARGAS and CRUZ - Nearside,30.227863,-97.698189,,http://www.capmetro.org/gismaps/stops/837.html,,,,0
838,838,1301 VARGAS/PORTER,Southeast corner of VARGAS and PORTER - Nearside,30.229473,-97.696974,,http://www.capmetro.org/gismaps/stops/838.html,,,,0
839,839,1101 VARGAS/MONTANA,Southeast corner of VARGAS and MONTANA - Nearside,30.231441,-97.695505,,http://www.capmetro.org/gismaps/stops/839.html,,,,0
840,840,901 VARGAS/FELIX,Southeast corner of VARGAS and FELIX - Nearside,30.233633,-97.693878,,http://www.capmetro.org/gismaps/stops/840.html,,,,0
841,841,603 VARGAS/PONCA,Northeast corner of VARGAS and PONCA - Mid-Block,30.236346,-97.6919,,http://www.capmetro.org/gismaps/stops/841.html,,,,0
843,843,5012 7TH/SHADY,Northwest corner of 7TH and SHADY - Farside,30.253837,-97.698172,,http://www.capmetro.org/gismaps/stops/843.html,,,,0
844,844,4600 7TH/SPRINGDALE,Northeast corner of 7TH and SPRINGDALE - Nearside,30.255955,-97.701385,,http://www.capmetro.org/gismaps/stops/844.html,,,,1
845,845,3300 7TH/ALLEN,Northeast corner of 7TH and ALLEN - Nearside,30.257822,-97.704256,,http://www.capmetro.org/gismaps/stops/845.html,,,,1
847,847,2700 7TH/CALLES,Northeast corner of 7TH and CALLES - Nearside,30.260665,-97.711521,,http://www.capmetro.org/gismaps/stops/847.html,,,,1
848,848,2500 7TH/PEDERNALES,Northeast corner of 7TH and PEDERNALES - Nearside,30.260963,-97.71356,,http://www.capmetro.org/gismaps/stops/848.html,,,,0
856,856,6TH/MEDINA,Northeast corner of 6TH and MEDINA - Nearside,30.26479,-97.731403,,http://www.capmetro.org/gismaps/stops/856.html,,,,0
857,857,6TH/BRUSHY,Northeast corner of 6TH and BRUSHY - Nearside,30.265485,-97.733445,,http://www.capmetro.org/gismaps/stops/857.html,,,,0
859,859,6TH/SABINE,Northeast corner of 6TH and SABINE - Nearside,30.266234,-97.735978,,http://www.capmetro.org/gismaps/stops/859.html,,,,0
861,861,6TH/TRINITY,Northeast corner of 6TH and TRINITY - Nearside,30.26715,-97.739204,,http://www.capmetro.org/gismaps/stops/861.html,,,,0
862,862,4TH/SAN JACINTO,Northwest corner of SAN JACINTO and 4TH - Nearside,30.26565,-97.741165,,http://www.capmetro.org/gismaps/stops/862.html,,,,0
863,863,11TH/SAN JACINTO SW CORNER,Southwest corner of 11TH and SAN JACINTO - Nearside,30.272,-97.738836,,http://www.capmetro.org/gismaps/stops/863.html,,,,0
864,864,TRINITY/12TH,Southeast corner of TRINITY and 12TH - Nearside,30.272709,-97.73715,,http://www.capmetro.org/gismaps/stops/864.html,,,,0
865,865,TRINITY/15TH,Southeast corner of TRINITY and 15TH - Nearside,30.275786,-97.736028,,http://www.capmetro.org/gismaps/stops/865.html,,,,0
866,866,TRINITY/18TH,Southeast corner of TRINITY and 18TH - Nearside,30.278435,-97.734985,,http://www.capmetro.org/gismaps/stops/866.html,,,,0
870,870,1509 MARTIN LUTHER KING/COMAL,Southeast corner of MARTIN LUTHER KING and COMAL - Farside,30.279074,-97.724701,,http://www.capmetro.org/gismaps/stops/870.html,,,,1
871,871,1703 MARTIN LUTHER KING/LEONA,Southeast corner of MARTIN LUTHER KING and LEONA - Farside,30.279411,-97.72286,,http://www.capmetro.org/gismaps/stops/871.html,,,,0
872,872,1813 MARTIN LUTHER KING/CHICON,Southwest corner of MARTIN LUTHER KING and CHICON - Nearside,30.279695,-97.721372,,http://www.capmetro.org/gismaps/stops/872.html,,,,0
873,873,2207 MARTIN LUTHER KING/FERDINAND,Southeast corner of MARTIN LUTHER KING and FERDINAND - Farside,30.28023,-97.718137,,http://www.capmetro.org/gismaps/stops/873.html,,,,0
874,874,2401 MARTIN LUTHER KING/MAPLE,Southeast corner of MARTIN LUTHER KING and MAPLE - Farside,30.280586,-97.715949,,http://www.capmetro.org/gismaps/stops/874.html,,,,1
875,875,2615 MARTIN LUTHER KING/WALNUT,Southwest corner of MARTIN LUTHER KING and WALNUT - Nearside,30.280972,-97.713458,,http://www.capmetro.org/gismaps/stops/875.html,,,,0
877,877,2915 MARTIN LUTHER KING/CLIFFORD,Southwest corner of MARTIN LUTHER KING and CLIFFORD - Nearside,30.281869,-97.707799,,http://www.capmetro.org/gismaps/stops/877.html,,,,0
878,878,2945 MARTIN LUTHER KING/HARVEY,Southwest corner of MARTIN LUTHER KING and HARVEY - Nearside,30.282207,-97.70565,,http://www.capmetro.org/gismaps/stops/878.html,,,,0
880,880,3431 MARTIN LUTHER KING/GREENWOOD,Southeast corner of MARTIN LUTHER KING and GREENWOOD - Farside,30.283318,-97.698197,,http://www.capmetro.org/gismaps/stops/880.html,,,,0
881,881,3601 MARTIN LUTHER KING/EM FRANKLIN,Southeast corner of MARTIN LUTHER KING and E M FRANKLIN - Farside,30.283699,-97.695712,,http://www.capmetro.org/gismaps/stops/881.html,,,,0
882,882,3815 MARTIN LUTHER KING/PEREZ,Southwest corner of MARTIN LUTHER KING and PEREZ - Nearside,30.284091,-97.693161,,http://www.capmetro.org/gismaps/stops/882.html,,,,0
883,883,4021 MARTIN LUTHER KING/ADRIANE,Southeast corner of MARTIN LUTHER KING and ADRIANE - Farside,30.284442,-97.690986,,http://www.capmetro.org/gismaps/stops/883.html,,,,0
885,885,4211 MARTIN LUTHER KING/ASTOR,Southeast corner of MARTIN LUTHER KING and ASTOR - Farside,30.28515,-97.68658,,http://www.capmetro.org/gismaps/stops/885.html,,,,0
886,886,MARTIN LUTHER KING/SPRINGDALE,Southwest corner of MARTIN LUTHER KING and SPRINGDALE - Nearside,30.28569,-97.68292,,http://www.capmetro.org/gismaps/stops/886.html,,,,0
898,898,4600 MARTIN LUTHER KING/SPRINGDALE,Northeast corner of MARTIN LUTHER KING and SPRINGDALE - Nearside,30.285993,-97.682245,,http://www.capmetro.org/gismaps/stops/898.html,,,,0
899,899,4214 MARTIN LUTHER KING/ASTOR,Northeast corner of MARTIN LUTHER KING and ASTOR - Nearside,30.285367,-97.686178,,http://www.capmetro.org/gismaps/stops/899.html,,,,0
901,901,4000 MARTIN LUTHER KING/ADRIANE,Northeast corner of MARTIN LUTHER KING and ADRIANE - Nearside,30.284556,-97.691402,,http://www.capmetro.org/gismaps/stops/901.html,,,,0
902,902,3900 MARTIN LUTHER KING/PEREZ,Northeast corner of MARTIN LUTHER KING and PEREZ - Nearside,30.284342,-97.692951,,http://www.capmetro.org/gismaps/stops/902.html,,,,0
905,905,3300 MARTIN LUTHER KING/TILLERY,Northeast corner of MARTIN LUTHER KING and TILLERY - Nearside,30.283022,-97.701544,,http://www.capmetro.org/gismaps/stops/905.html,,,,0
909,909,2700 MARTIN LUTHER KING/WALNUT,Northeast corner of MARTIN LUTHER KING and WALNUT - Nearside,30.28113,-97.713317,,http://www.capmetro.org/gismaps/stops/909.html,,,,1
910,910,2300 MARTIN LUTHER KING/CHESTNUT,Northeast corner of MARTIN LUTHER KING and CHESTNUT - Nearside,30.280549,-97.717136,,http://www.capmetro.org/gismaps/stops/910.html,,,,0
911,911,1900 MARTIN LUTHER KING/CHICON,Northeast corner of MARTIN LUTHER KING and CHICON - Nearside,30.279877,-97.721101,,http://www.capmetro.org/gismaps/stops/911.html,,,,0
912,912,1700 MARTIN LUTHER KING/LEONA,Northeast corner of MARTIN LUTHER KING and LEONA - Nearside,30.279502,-97.723095,,http://www.capmetro.org/gismaps/stops/912.html,,,,1
913,913,1498 MARTIN LUTHER KING/COMAL,Northwest corner of MARTIN LUTHER KING and COMAL - Farside,30.279075,-97.725602,,http://www.capmetro.org/gismaps/stops/913.html,,,,0
915,915,1806 SAN JACINTO/MARTIN LUTHER KING,Southwest corner of SAN JACINTO and MARTIN LUTHER KING - Farside,30.279508,-97.736019,,http://www.capmetro.org/gismaps/stops/915.html,,,,0
916,916,SAN JACINTO/17TH,Northwest corner of SAN JACINTO and 17TH - Nearside,30.278165,-97.736503,,http://www.capmetro.org/gismaps/stops/916.html,,,,0
918,918,SAN JACINTO/15TH,Northwest corner of SAN JACINTO and 15TH - Nearside,30.276411,-97.73718,,http://www.capmetro.org/gismaps/stops/918.html,,,,0
919,919,SAN JACINTO/14TH,Northwest corner of SAN JACINTO and 14TH - Nearside,30.275451,-97.737526,,http://www.capmetro.org/gismaps/stops/919.html,,,,1
920,920,SAN JACINTO/13TH,Northwest corner of SAN JACINTO and 13TH - Nearside,30.274498,-97.737862,,http://www.capmetro.org/gismaps/stops/920.html,,,,0
921,921,SAN JACINTO/12TH,Northwest corner of SAN JACINTO and 12TH - Nearside,30.273386,-97.73828,,http://www.capmetro.org/gismaps/stops/921.html,,,,0
922,922,SAN JACINTO/11TH,Northwest corner of SAN JACINTO and 11TH - Nearside,30.272213,-97.738718,,http://www.capmetro.org/gismaps/stops/922.html,,,,0
924,924,7TH/SAN JACINTO,Southwest corner of 7TH and SAN JACINTO - Nearside,30.268274,-97.740219,,http://www.capmetro.org/gismaps/stops/924.html,,,,0
925,925,7TH/TRINITY,Southwest corner of 7TH and TRINITY - Nearside,30.26798,-97.739148,,http://www.capmetro.org/gismaps/stops/925.html,,,,0
926,926,7TH/NECHES,Southwest corner of 7TH and NECHES - Nearside,30.267679,-97.738065,,http://www.capmetro.org/gismaps/stops/926.html,,,,0
927,927,519 7TH/RED RIVER,Southwest corner of 7TH and RED RIVER - Nearside,30.267377,-97.73701,,http://www.capmetro.org/gismaps/stops/927.html,,,,0
928,928,IH-35/EAST 7TH,Southwest corner of 7TH and IH-35 - Nearside,30.266895,-97.735299,,http://www.capmetro.org/gismaps/stops/928.html,,,,0
929,929,7TH/SAN MARCOS,Southwest corner of 7TH and SAN MARCOS - Nearside,30.265971,-97.732268,,http://www.capmetro.org/gismaps/stops/929.html,,,,0
930,930,7TH/WALLER,Southwest corner of 7TH and WALLER - Nearside,30.265271,-97.730247,,http://www.capmetro.org/gismaps/stops/930.html,,,,0
931,931,7TH/NAVASOTA,Southwest corner of 7TH and NAVASOTA - Nearside,30.264583,-97.728178,,http://www.capmetro.org/gismaps/stops/931.html,,,,0
933,933,7TH/CHALMERS,Southwest corner of 7TH and CHALMERS - Nearside,30.26317,-97.724268,,http://www.capmetro.org/gismaps/stops/933.html,,,,0
934,934,CHICON/EAST 7TH,Southwest corner of 7TH and CHICON - Nearside,30.262511,-97.722327,,http://www.capmetro.org/gismaps/stops/934.html,,,,1
935,935,7TH/ROBERT T MARTINEZ JR,Southwest corner of 7TH and ROBERT T MARTINEZ JR - Nearside,30.261532,-97.718195,,http://www.capmetro.org/gismaps/stops/935.html,,,,1
936,936,2425 7TH/PEDERNALES,Southwest corner of 7TH and PEDERNALES - Nearside,30.260851,-97.713904,,http://www.capmetro.org/gismaps/stops/936.html,,,,1
937,937,2621 7TH/CALLES,Southwest corner of 7TH and CALLES - Nearside,30.260533,-97.711831,,http://www.capmetro.org/gismaps/stops/937.html,,,,0
938,938,2789 7TH/PLEASANT VALLEY,Southwest corner of 7TH and PLEASANT VALLEY - Nearside,30.260066,-97.709674,,http://www.capmetro.org/gismaps/stops/938.html,,,,0
939,939,3223 7TH/ALLEN,Southwest corner of 7TH and ALLEN - Nearside,30.257758,-97.704514,,http://www.capmetro.org/gismaps/stops/939.html,,,,0
940,940,3535 7TH/SPRINGDALE,Southwest corner of 7TH and SPRINGDALE - Nearside,30.256025,-97.701819,,http://www.capmetro.org/gismaps/stops/940.html,,,,0
942,942,5021 7TH/SHADY,Southwest corner of 7TH and SHADY - Nearside,30.253397,-97.697886,,http://www.capmetro.org/gismaps/stops/942.html,,,,0
944,944,618 VARGAS/PONCA,Northwest corner of VARGAS and PONCA - Nearside,30.235736,-97.692557,,http://www.capmetro.org/gismaps/stops/944.html,,,,0
945,945,818 VARGAS/FELIX,Northwest corner of VARGAS and FELIX - Nearside,30.233822,-97.693933,,http://www.capmetro.org/gismaps/stops/945.html,,,,0
946,946,1100 VARGAS/MONTANA,Southwest corner of VARGAS and MONTANA - Farside,30.231418,-97.695724,,http://www.capmetro.org/gismaps/stops/946.html,,,,0
947,947,1220 VARGAS/PORTER,Northwest corner of VARGAS and PORTER - Nearside,30.229654,-97.697029,,http://www.capmetro.org/gismaps/stops/947.html,,,,0
948,948,1420 VARGAS/SANTOS,Northwest corner of VARGAS and SANTOS - Nearside,30.227645,-97.698538,,http://www.capmetro.org/gismaps/stops/948.html,,,,0
949,949,1900 VARGAS/RIVERSIDE,Northwest corner of VARGAS and RIVERSIDE - Nearside,30.22429,-97.701058,,http://www.capmetro.org/gismaps/stops/949.html,,,,1
950,950,6306 RIVERSIDE/MONTOPOLIS,Northeast corner of RIVERSIDE and MONTOPOLIS - Nearside,30.224996,-97.703124,,http://www.capmetro.org/gismaps/stops/950.html,,,,0
951,951,6000 RIVERSIDE/CLUBVIEW,Northwest corner of RIVERSIDE and CLUBVIEW - Mid-Block,30.226586,-97.706711,,http://www.capmetro.org/gismaps/stops/951.html,,,,0
953,953,1101 GROVE (ACC RIVERSIDE),Southeast corner of GROVE and ACC RIVERSIDE TURNOFF - Nearside,30.235008,-97.704179,,http://www.capmetro.org/gismaps/stops/953.html,,,,1
954,954,2007 ANDERSON/BURNET,Southeast corner of ANDERSON and BURNET - Mid-Block,30.354472,-97.727616,,http://www.capmetro.org/gismaps/stops/954.html,,,,1
956,956,WOODROW/ANDERSON,Southwest corner of ANDERSON and WOODROW - Nearside,30.35245,-97.7234,,http://www.capmetro.org/gismaps/stops/956.html,,,,0
958,958,WOODROW/PRINCETON,Northwest corner of WOODROW and PRINCETON - Nearside,30.349882,-97.723185,,http://www.capmetro.org/gismaps/stops/958.html,,,,0
960,960,WOODROW/RICHCREEK,Northwest corner of WOODROW and RICHCREEK - Nearside,30.346068,-97.724799,,http://www.capmetro.org/gismaps/stops/960.html,,,,0
962,962,7100 WOODROW/PIEDMONT,Southwest corner of WOODROW and PIEDMONT - Mid-Block,30.342981,-97.725124,,http://www.capmetro.org/gismaps/stops/962.html,,,,0
963,963,7000 WOODROW/CULLEN,Northwest corner of WOODROW and CULLEN - Nearside,30.341522,-97.725904,,http://www.capmetro.org/gismaps/stops/963.html,,,,0
964,964,6800 WOODROW/CHOQUETTE,Northwest corner of WOODROW and CHOQUETTE - Nearside,30.339208,-97.727376,,http://www.capmetro.org/gismaps/stops/964.html,,,,0
965,965,6600 WOODROW/BRENTWOOD,Northwest corner of WOODROW and BRENTWOOD - Nearside,30.337479,-97.728461,,http://www.capmetro.org/gismaps/stops/965.html,,,,0
966,966,WOODROW/PAYNE,Northwest corner of WOODROW and PAYNE - Nearside,30.335923,-97.729446,,http://www.capmetro.org/gismaps/stops/966.html,,,,0
967,967,WOODROW/ROMERIA,Northwest corner of WOODROW and ROMERIA - Nearside,30.333637,-97.730682,,http://www.capmetro.org/gismaps/stops/967.html,,,,0
968,968,5900 WOODROW/KOENIG,Northwest corner of WOODROW and KOENIG - Nearside,30.331024,-97.7316,,http://www.capmetro.org/gismaps/stops/968.html,,,,0
969,969,5626 WOODROW/THECKLA,Southwest corner of WOODROW and THECKLA - Farside,30.328866,-97.732957,,http://www.capmetro.org/gismaps/stops/969.html,,,,0
970,970,5500 WOODROW/HOUSTON,Northwest corner of WOODROW and HOUSTON - Nearside,30.326461,-97.734505,,http://www.capmetro.org/gismaps/stops/970.html,,,,0
971,971,5300 WOODROW/NORTH LOOP,Northwest corner of WOODROW and NORTH LOOP - Nearside,30.324296,-97.735849,,http://www.capmetro.org/gismaps/stops/971.html,,,,0
972,972,5200 WOODROW/NORTH,Northwest corner of WOODROW and NORTH - Nearside,30.322571,-97.736955,,http://www.capmetro.org/gismaps/stops/972.html,,,,0
973,973,1215 51ST/GROVER,Southwest corner of 51ST and GROVER - Nearside,30.320538,-97.735873,,http://www.capmetro.org/gismaps/stops/973.html,,,,0
974,974,1143 49TH/GROVER,Southeast corner of 49TH and GROVER - Mid-Block,30.318547,-97.736463,,http://www.capmetro.org/gismaps/stops/974.html,,,,0
977,977,909 45TH/LAMAR,Southeast corner of 45TH and LAMAR - Mid-Block,30.31298,-97.736887,,http://www.capmetro.org/gismaps/stops/977.html,,,,0
978,978,507 45TH/GUADALUPE,Southeast corner of 45TH and GUADALUPE - Mid-Block,30.310607,-97.732618,,http://www.capmetro.org/gismaps/stops/978.html,,,,0
979,979,301 45TH/AVENUE C,Southwest corner of 45TH and AVENUE C - Nearside,30.309535,-97.730392,,http://www.capmetro.org/gismaps/stops/979.html,,,,1
980,980,SPEEDWAY/45TH,Southwest corner of SPEEDWAY and 45TH - Farside,30.30835,-97.728674,,http://www.capmetro.org/gismaps/stops/980.html,,,,0
981,981,4300 SPEEDWAY/43RD,Northwest corner of SPEEDWAY and 43RD - Nearside,30.306697,-97.729732,,http://www.capmetro.org/gismaps/stops/981.html,,,,0
982,982,4004 SPEEDWAY/40TH,Northwest corner of SPEEDWAY and 40TH - Mid-Block,30.303498,-97.731786,,http://www.capmetro.org/gismaps/stops/982.html,,,,0
983,983,3812 SPEEDWAY/38TH HALF,Northwest corner of SPEEDWAY and 38TH HALF - Nearside,30.30138,-97.733132,,http://www.capmetro.org/gismaps/stops/983.html,,,,1
985,985,3204 SPEEDWAY/33RD,Southwest corner of SPEEDWAY and 33RD - Mid-Block,30.29713,-97.735816,,http://www.capmetro.org/gismaps/stops/985.html,,,,0
987,987,SPEEDWAY/30TH,Northwest corner of SPEEDWAY and 30TH - Nearside,30.293302,-97.736011,,http://www.capmetro.org/gismaps/stops/987.html,,,,1
989,989,2600 SPEEDWAY/DEAN KEETON,Northwest corner of SPEEDWAY and DEAN KEETON - Nearside,30.28965,-97.736874,,http://www.capmetro.org/gismaps/stops/989.html,,,,0
991,991,2500 GUADALUPE/25TH,Northwest corner of GUADALUPE and 25TH - Nearside,30.28915,-97.741559,,http://www.capmetro.org/gismaps/stops/991.html,,,,0
993,993,CESAR CHAVEZ/BRAZOS,Southwest corner of CESAR CHAVEZ and BRAZOS - Nearside,30.262969,-97.743365,,http://www.capmetro.org/gismaps/stops/993.html,,,,0
995,995,515 CESAR CHAVEZ/RED RIVER,Southwest corner of CESAR CHAVEZ and RED RIVER - Nearside,30.261712,-97.738932,,http://www.capmetro.org/gismaps/stops/995.html,,,,0
999,999,RIVERSIDE/SUMMIT,Southeast corner of RIVERSIDE and SUMMIT - Mid-Block,30.245976,-97.731836,,http://www.capmetro.org/gismaps/stops/999.html,,,,1
1002,1002,RIVERSIDE/BURTON,Southwest corner of RIVERSIDE and BURTON - Nearside,30.240343,-97.727309,,http://www.capmetro.org/gismaps/stops/1002.html,,,,1
1003,1003,2237 RIVERSIDE/WILLOW CREEK,Northwest corner of RIVERSIDE and WILLOW CREEK - Mid-Block,30.238275,-97.726015,,http://www.capmetro.org/gismaps/stops/1003.html,,,,0
1005,1005,2507 RIVERSIDE/PLEASANT VALLEY,Southwest corner of RIVERSIDE and PLEASANT VALLEY - Nearside,30.233867,-97.72376,,http://www.capmetro.org/gismaps/stops/1005.html,,,,0
1006,1006,2104 PLEASANT VALLEY/WILLOW HILL,Southwest corner of PLEASANT VALLEY and WILLOW HILL - Mid-Block,30.232599,-97.724681,,http://www.capmetro.org/gismaps/stops/1006.html,,,,1
1008,1008,4411 OLTORF/HUNTWICK,Southwest corner of OLTORF and HUNTWICK - Nearside,30.226655,-97.726263,,http://www.capmetro.org/gismaps/stops/1008.html,,,,1
1009,1009,2401 WICKERSHAM/OLTORF,Northeast corner of WICKERSHAM and OLTORF - Mid-Block,30.226039,-97.723488,,http://www.capmetro.org/gismaps/stops/1009.html,,,,1
1010,1010,WICKERSHAM/CROMWELL,Southeast corner of WICKERSHAM and CROMWELL - Nearside,30.227021,-97.721847,,http://www.capmetro.org/gismaps/stops/1010.html,,,,0
1011,1011,2207 WICKERSHAM/SHERINGHAM,Southeast corner of WICKERSHAM and SHERINGHAM - Nearside,30.229237,-97.721378,,http://www.capmetro.org/gismaps/stops/1011.html,,,,0
1012,1012,2001 WICKERSHAM/RIVERSIDE,Southeast corner of WICKERSHAM and RIVERSIDE - Nearside,30.232126,-97.720383,,http://www.capmetro.org/gismaps/stops/1012.html,,,,0
1013,1013,4825 RIVERSIDE/KIRKSEY,Southwest corner of RIVERSIDE and KIRKSEY - Nearside,30.231316,-97.717041,,http://www.capmetro.org/gismaps/stops/1013.html,,,,0
1014,1014,5100 RIVERSIDE/RIVERSIDE FARMS,Southwest corner of RIVERSIDE and RIVERSIDE FARMS - Nearside,30.230355,-97.714648,,http://www.capmetro.org/gismaps/stops/1014.html,,,,0
1015,1015,5401 RIVERSIDE/FARO,Southeast corner of RIVERSIDE and FARO - Mid-Block,30.229169,-97.712324,,http://www.capmetro.org/gismaps/stops/1015.html,,,,0
1016,1016,5500 RIVERSIDE/PENICK,Southeast corner of RIVERSIDE and PENICK - Farside,30.228277,-97.710766,,http://www.capmetro.org/gismaps/stops/1016.html,,,,1
1017,1017,RUIZ LIBRARY,Southwest corner of GROVE and FAIRWAY - Farside,30.229539,-97.706558,,http://www.capmetro.org/gismaps/stops/1017.html,,,,0
1018,1018,RIVERSIDE/FARO,Northwest corner of RIVERSIDE and FARO - Mid-Block,30.229833,-97.712898,,http://www.capmetro.org/gismaps/stops/1018.html,,,,0
1020,1020,4900 RIVERSIDE/CROSSING PLACE,Northwest corner of RIVERSIDE and CROSSING PLACE - Farside,30.23136,-97.71637,,http://www.capmetro.org/gismaps/stops/1020.html,,,,0
1021,1021,4823 RIVERSIDE/CROSSING PLACE,Northwest corner of RIVERSIDE and CROSSING PLACE - Farside,30.231928,-97.717861,,http://www.capmetro.org/gismaps/stops/1021.html,,,,0
1022,1022,2100 WICKERSHAM/RIVERSIDE,Southwest corner of WICKERSHAM and RIVERSIDE - Farside,30.231526,-97.720884,,http://www.capmetro.org/gismaps/stops/1022.html,,,,0
1023,1023,WICKERSHAM/SHERINGHAM,Northwest corner of WICKERSHAM and SHERINGHAM - Nearside,30.229914,-97.721493,,http://www.capmetro.org/gismaps/stops/1023.html,,,,0
1024,1024,2300 WICKERSHAM/CROMWELL,Northwest corner of WICKERSHAM and CROMWELL - Nearside,30.227534,-97.721731,,http://www.capmetro.org/gismaps/stops/1024.html,,,,1
1025,1025,2440 WICKERSHAM/OLTORF,Northwest corner of WICKERSHAM and OLTORF - Nearside,30.226083,-97.723784,,http://www.capmetro.org/gismaps/stops/1025.html,,,,1
1027,1027,2433 PLEASANT VALLEY/OLTORF,Northeast corner of PLEASANT VALLEY and OLTORF - Mid-Block,30.228028,-97.727241,,http://www.capmetro.org/gismaps/stops/1027.html,,,,1
1028,1028,2209 PLEASANT VALLEY/SHERINGHAM,Southeast corner of PLEASANT VALLEY and SHERINGHAM - Nearside,30.231097,-97.725299,,http://www.capmetro.org/gismaps/stops/1028.html,,,,0
1029,1029,2426 RIVERSIDE/PLEASANT VALLEY,Northwest corner of RIVERSIDE and PLEASANT VALLEY - Mid-Block,30.235706,-97.72437,,http://www.capmetro.org/gismaps/stops/1029.html,,,,0
1030,1030,RIVERSIDE/WILLOW CREEK,Northeast corner of RIVERSIDE and WILLOW CREEK - Mid-Block,30.238065,-97.725635,,http://www.capmetro.org/gismaps/stops/1030.html,,,,0
1032,1032,RIVERSIDE/TOWN CREEK,Southeast corner of RIVERSIDE and TOWN CREEK - Nearside,30.24114,-97.727591,,http://www.capmetro.org/gismaps/stops/1032.html,,,,0
1033,1033,RIVERSIDE/ARENA,Southeast corner of RIVERSIDE and ARENA - Nearside,30.242868,-97.728889,,http://www.capmetro.org/gismaps/stops/1033.html,,,,1
1034,1034,1600 RIVERSIDE/SUMMIT,Northeast corner of RIVERSIDE and SUMMIT - Nearside,30.246505,-97.731969,,http://www.capmetro.org/gismaps/stops/1034.html,,,,1
1038,1038,400 CESAR CHAVEZ/TRINITY,Northeast corner of CESAR CHAVEZ and TRINITY - Nearside,30.26246,-97.74084,,http://www.capmetro.org/gismaps/stops/1038.html,,,,0
1042,1042,2231 GUADALUPE/WEST MALL UT,Southeast corner of GUADALUPE and WEST MALL UT - Nearside,30.285736,-97.741599,,http://www.capmetro.org/gismaps/stops/1042.html,,,,0
1043,1043,2425 GUADALUPE/25TH,Southeast corner of GUADALUPE and 25TH - Nearside,30.288664,-97.741399,,http://www.capmetro.org/gismaps/stops/1043.html,,,,0
1046,1046,3005 SPEEDWAY/SAN JACINTO,Northeast corner of SPEEDWAY and SAN JACINTO - Mid-Block,30.29347,-97.7356,,http://www.capmetro.org/gismaps/stops/1046.html,,,,0
1049,1049,SPEEDWAY/35TH,Southeast corner of SPEEDWAY and 35TH - Nearside,30.299217,-97.734341,,http://www.capmetro.org/gismaps/stops/1049.html,,,,0
1051,1051,SPEEDWAY/39TH,Southeast corner of SPEEDWAY and 39TH - Nearside,30.301591,-97.732825,,http://www.capmetro.org/gismaps/stops/1051.html,,,,0
1053,1053,4301 SPEEDWAY/43RD,Northeast corner of SPEEDWAY and 43RD - Farside,30.306616,-97.729616,,http://www.capmetro.org/gismaps/stops/1053.html,,,,0
1054,1054,108 45TH STREET/AVENUE D,Northeast corner of 45TH and AVENUE D - Nearside,30.309112,-97.729235,,http://www.capmetro.org/gismaps/stops/1054.html,,,,0
1055,1055,408 45TH STREET/AVENUE A,Northeast corner of 45TH and AVENUE A - Nearside,30.310425,-97.731878,,http://www.capmetro.org/gismaps/stops/1055.html,,,,0
1056,1056,636 45TH/GUADALUPE,Northwest corner of 45TH and GUADALUPE - Farside,30.31125,-97.733468,,http://www.capmetro.org/gismaps/stops/1056.html,,,,0
1057,1057,918 45TH/LAMAR,Northeast corner of 45TH and LAMAR - Nearside,30.313397,-97.737245,,http://www.capmetro.org/gismaps/stops/1057.html,,,,0
1058,1058,SUNSHINE STATION (NB),Northeast corner of SUNSHINE and LAMAR - Mid-Block,30.316032,-97.735981,,http://www.capmetro.org/gismaps/stops/1058.html,,,,0
1059,1059,4801 SUNSHINE (CRISS COLE REHAB),Southeast corner of SUNSHINE and 49TH - Nearside,30.317382,-97.735114,,http://www.capmetro.org/gismaps/stops/1059.html,,,,0
1060,1060,1100 49TH/GROVER,Northeast corner of 49TH and GROVER - Nearside,30.318791,-97.736647,,http://www.capmetro.org/gismaps/stops/1060.html,,,,0
1061,1061,1200 51ST/GROVER,Northwest corner of 51ST and GROVER - Mid-Block,30.320707,-97.735989,,http://www.capmetro.org/gismaps/stops/1061.html,,,,0
1062,1062,5113 WOODROW/NORTH,Southeast corner of WOODROW and NORTH - Nearside,30.322371,-97.736892,,http://www.capmetro.org/gismaps/stops/1062.html,,,,0
1063,1063,5223 WOODROW/NORTH LOOP,Southeast corner of WOODROW and NORTH LOOP - Nearside,30.324061,-97.735824,,http://www.capmetro.org/gismaps/stops/1063.html,,,,0
1064,1064,5413 WOODROW/HOUSTON,Southeast corner of WOODROW and HOUSTON - Nearside,30.326186,-97.734482,,http://www.capmetro.org/gismaps/stops/1064.html,,,,0
1065,1065,5515 WOODROW/HOUSTON,Northeast corner of WOODROW and HOUSTON - Mid-Block,30.327565,-97.733603,,http://www.capmetro.org/gismaps/stops/1065.html,,,,0
1066,1066,5701 WOODROW/THECKLA,Northeast corner of WOODROW and THECKLA - Farside,30.329034,-97.732673,,http://www.capmetro.org/gismaps/stops/1066.html,,,,0
1067,1067,5819 WOODROW/KOENIG,Southeast corner of WOODROW and KOENIG - Nearside,30.330737,-97.73158,,http://www.capmetro.org/gismaps/stops/1067.html,,,,0
1068,1068,WOODROW/ALGUNO,Northeast corner of WOODROW and ALGUNO - Mid-Block,30.332811,-97.730682,,http://www.capmetro.org/gismaps/stops/1068.html,,,,0
1069,1069,WOODROW/ALEGRIA,Northeast corner of WOODROW and ALEGRIA - Mid-Block,30.334573,-97.730128,,http://www.capmetro.org/gismaps/stops/1069.html,,,,0
1070,1070,6523 WOODROW/BRENTWOOD,Southeast corner of WOODROW and BRENTWOOD - Nearside,30.337279,-97.72842,,http://www.capmetro.org/gismaps/stops/1070.html,,,,0
1072,1072,WOODROW/DWYCE,Northeast corner of WOODROW and DWYCE - Mid-Block,30.340171,-97.726594,,http://www.capmetro.org/gismaps/stops/1072.html,,,,0
1074,1074,7115 WOODROW/PIEDMONT,Southeast corner of WOODROW and PIEDMONT - Nearside,30.342849,-97.724984,,http://www.capmetro.org/gismaps/stops/1074.html,,,,0
1075,1075,WOODROW/PASADENA,Southeast corner of WOODROW and PASADENA - Nearside,30.344977,-97.72521,,http://www.capmetro.org/gismaps/stops/1075.html,,,,0
1076,1076,WOODROW/MORROW,Southeast corner of WOODROW and MORROW - Nearside,30.34743,-97.723761,,http://www.capmetro.org/gismaps/stops/1076.html,,,,0
1077,1077,7717 WOODROW/PRINCETON,Northeast corner of WOODROW and PRINCETON - Nearside,30.34989,-97.72302,,http://www.capmetro.org/gismaps/stops/1077.html,,,,0
1078,1078,1700 ANDERSON/WOOTEN PARK,Northwest corner of ANDERSON and WOOTEN PARK - Mid-Block,30.35279,-97.72362,,http://www.capmetro.org/gismaps/stops/1078.html,,,,0
1080,1080,ANDERSON/MULLEN,Northwest corner of ANDERSON and MULLEN - Farside,30.35401,-97.72622,,http://www.capmetro.org/gismaps/stops/1080.html,,,,0
1084,1084,4000 TANNEHILL/JACKIE ROBINSON,Northwest corner of TANNEHILL and JACKIE ROBINSON - Nearside,30.27639,-97.676033,,http://www.capmetro.org/gismaps/stops/1084.html,,,,0
1085,1085,JACKIE ROBINSON/DELANO,Northeast corner of JACKIE ROBINSON and DELANO - Nearside,30.276588,-97.67835,,http://www.capmetro.org/gismaps/stops/1085.html,,,,0
1086,1086,1200 DELANO/HUDSON,Northwest corner of DELANO and HUDSON - Nearside,30.27344,-97.67808,,http://www.capmetro.org/gismaps/stops/1086.html,,,,0
1087,1087,HUDSON/ELEANOR,Northeast corner of ELEANOR and HUDSON - Farside,30.27398,-97.67936,,http://www.capmetro.org/gismaps/stops/1087.html,,,,0
1088,1088,1307 FORT BRANCH/ELEANOR,Northeast corner of FORT BRANCH and ELEANOR - Mid-Block,30.277068,-97.680092,,http://www.capmetro.org/gismaps/stops/1088.html,,,,0
1089,1089,1420 WEBBERVILLE/FORT BRANCH,Northwest corner of WEBBERVILLE and FORT BRANCH - Farside,30.27989,-97.681063,,http://www.capmetro.org/gismaps/stops/1089.html,,,,0
1090,1090,WEBBERVILLE/RIBBECKE,Northwest corner of WEBBERVILLE and RIBBECKE - Farside,30.279255,-97.683196,,http://www.capmetro.org/gismaps/stops/1090.html,,,,0
1091,1091,12TH/WEBBERVILLE,Northwest corner of 12TH and WEBBERVILLE - Farside,30.278301,-97.685341,,http://www.capmetro.org/gismaps/stops/1091.html,,,,0
1092,1092,4600 12TH/SPRINGDALE,Northeast corner of 12TH and SPRINGDALE - Nearside,30.278941,-97.686682,,http://www.capmetro.org/gismaps/stops/1092.html,,,,0
1093,1093,12TH/COMETA,Northeast corner of 12TH and COMETA - Nearside,30.278639,-97.689538,,http://www.capmetro.org/gismaps/stops/1093.html,,,,0
1094,1094,3522 12TH/E M FRANKLIN,Northeast corner of 12TH and E M FRANKLIN - Nearside,30.277864,-97.694461,,http://www.capmetro.org/gismaps/stops/1094.html,,,,1
1096,1096,3250 12TH/AIRPORT,Northeast corner of 12TH and AIRPORT - Nearside,30.276978,-97.700178,,http://www.capmetro.org/gismaps/stops/1096.html,,,,0
1097,1097,3100 12TH/MCKINLEY,Northeast corner of 12TH and MCKINLEY - Nearside,30.276654,-97.702258,,http://www.capmetro.org/gismaps/stops/1097.html,,,,0
1098,1098,12TH/HARVEY,Northeast corner of 12TH and HARVEY - Nearside,30.276346,-97.70424,,http://www.capmetro.org/gismaps/stops/1098.html,,,,0
1099,1099,2900 12TH/ALEXANDER,Northeast corner of 12TH and ALEXANDER - Nearside,30.275723,-97.708093,,http://www.capmetro.org/gismaps/stops/1099.html,,,,0
1100,1100,2730 12TH/NEW YORK,Northeast corner of 12TH and NEW YORK - Mid-Block,30.275351,-97.710464,,http://www.capmetro.org/gismaps/stops/1100.html,,,,0
1101,1101,12TH/CEDAR,Northwest corner of 12TH and CEDAR - Mid-Block,30.274879,-97.713399,,http://www.capmetro.org/gismaps/stops/1101.html,,,,0
1102,1102,2204 12TH/CHESTNUT,Northwest corner of 12TH and CHESTNUT - Mid-Block,30.27439,-97.716486,,http://www.capmetro.org/gismaps/stops/1102.html,,,,0
1103,1103,2000 12TH/POQUITO,Northeast corner of 12TH and POQUITO - Nearside,30.274004,-97.718851,,http://www.capmetro.org/gismaps/stops/1103.html,,,,0
1104,1104,1900 12TH/CHICON,Northeast corner of 12TH and CHICON - Nearside,30.273852,-97.719761,,http://www.capmetro.org/gismaps/stops/1104.html,,,,0
1105,1105,1700 12TH/LEONA,Northeast corner of 12TH and LEONA - Nearside,30.27352,-97.721901,,http://www.capmetro.org/gismaps/stops/1105.html,,,,0
1106,1106,1400 12TH/ANGELINA,Northeast corner of 12TH and ANGELINA - Nearside,30.273059,-97.7249,,http://www.capmetro.org/gismaps/stops/1106.html,,,,0
1107,1107,1220 12TH/SAN BERNARD,Northwest corner of 12TH and SAN BERNARD - Farside,30.272727,-97.726844,,http://www.capmetro.org/gismaps/stops/1107.html,,,,0
1108,1108,12TH/WALLER,Northwest corner of 12TH and WALLER - Farside,30.272359,-97.729222,,http://www.capmetro.org/gismaps/stops/1108.html,,,,0
1109,1109,12TH/IH-35,Northeast corner of 12TH and BRANCH - Nearside,30.272079,-97.730925,,http://www.capmetro.org/gismaps/stops/1109.html,,,,0
1113,1113,12TH/BRANCH,Southwest corner of 12TH and BRANCH - Nearside,30.27191,-97.73128,,http://www.capmetro.org/gismaps/stops/1113.html,,,,0
1114,1114,12TH/NAVASOTA,Southwest corner of 12TH and NAVASOTA - Nearside,30.272429,-97.727843,,http://www.capmetro.org/gismaps/stops/1114.html,,,,0
1115,1115,1301 12TH/SAN BERNARD,Southeast corner of 12TH and SAN BERNARD - Farside,30.27271,-97.72615,,http://www.capmetro.org/gismaps/stops/1115.html,,,,0
1118,1118,1819 12TH/CHICON,Southwest corner of 12TH and CHICON - Nearside,30.273695,-97.720001,,http://www.capmetro.org/gismaps/stops/1118.html,,,,0
1119,1119,1919 12TH/POQUITO,Southwest corner of 12TH and POQUITO - Nearside,30.273837,-97.718965,,http://www.capmetro.org/gismaps/stops/1119.html,,,,0
1121,1121,2601 12TH/CEDAR,Southeast corner of 12TH and CEDAR - Farside,30.274815,-97.712846,,http://www.capmetro.org/gismaps/stops/1121.html,,,,0
1122,1122,2733 12TH/NEW YORK,Southeast corner of 12TH and NEW YORK - Mid-Block,30.275203,-97.710441,,http://www.capmetro.org/gismaps/stops/1122.html,,,,1
1123,1123,2863 12TH/ALEXANDER,Southwest corner of 12TH and ALEXANDER - Nearside,30.275533,-97.708349,,http://www.capmetro.org/gismaps/stops/1123.html,,,,0
1124,1124,2917 12TH/HARGRAVE,Southeast corner of 12TH and HARGRAVE - Mid-Block,30.275868,-97.706343,,http://www.capmetro.org/gismaps/stops/1124.html,,,,0
1125,1125,3021 12TH/MCKINLEY,Southwest corner of 12TH and MCKINLEY - Nearside,30.276474,-97.702363,,http://www.capmetro.org/gismaps/stops/1125.html,,,,0
1126,1126,3245 12TH/AIRPORT,Southwest corner of 12TH and AIRPORT - Nearside,30.276731,-97.700547,,http://www.capmetro.org/gismaps/stops/1126.html,,,,0
1127,1127,3403 12TH/GREENWOOD,Southeast corner of 12TH and GREENWOOD - Farside,30.277301,-97.697085,,http://www.capmetro.org/gismaps/stops/1127.html,,,,0
1128,1128,3525 12TH/E M FRANKLIN,Southwest corner of 12TH and E M FRANKLIN - Nearside,30.277722,-97.694402,,http://www.capmetro.org/gismaps/stops/1128.html,,,,0
1130,1130,1201 WEBBERVILLE/12TH,Northeast corner of WEBBERVILLE and 12TH - Farside,30.278282,-97.684544,,http://www.capmetro.org/gismaps/stops/1130.html,,,,0
1131,1131,1401 WEBBERVILLE/RIBBECKE,Southwest corner of WEBBERVILLE and RIBBECKE - Nearside,30.279406,-97.682614,,http://www.capmetro.org/gismaps/stops/1131.html,,,,0
1132,1132,1419 WEBBERVILLE/FORT BRANCH,Southwest corner of WEBBERVILLE and FORT BRANCH - Nearside,30.279744,-97.680966,,http://www.capmetro.org/gismaps/stops/1132.html,,,,0
1133,1133,1302 FORT BRANCH/ELEANOR,Northwest corner of FORT BRANCH and ELEANOR - Nearside,30.27693,-97.680222,,http://www.capmetro.org/gismaps/stops/1133.html,,,,0
1134,1134,ELEANOR/HUDSON,Southeast corner of HUDSON and ELEANOR - Farside,30.273744,-97.679074,,http://www.capmetro.org/gismaps/stops/1134.html,,,,0
1135,1135,1201 DELANO/HUDSON,Northeast corner of DELANO and HUDSON - Farside,30.273423,-97.677929,,http://www.capmetro.org/gismaps/stops/1135.html,,,,0
1137,1137,3811 TANNEHILL/JACKIE ROBINSON,Northeast corner of TANNEHILL and JACKIE ROBINSON - Farside,30.276584,-97.675697,,http://www.capmetro.org/gismaps/stops/1137.html,,,,0
1138,1138,4021 TANNEHILL/SAMUEL HUSTON,Southeast corner of TANNEHILL and SAMUEL HUSTON - Nearside,30.279192,-97.673977,,http://www.capmetro.org/gismaps/stops/1138.html,,,,0
1140,1140,ABERDEEN/RUNDBERG,Northwest corner of ABERDEEN and RUNDBERG - Nearside,30.352932,-97.678803,,http://www.capmetro.org/gismaps/stops/1140.html,,,,0
1141,1141,1200 RUNDBERG/TEASDALE,Northeast corner of RUNDBERG and TEASDALE - Nearside,30.354111,-97.681289,,http://www.capmetro.org/gismaps/stops/1141.html,,,,0
1142,1142,RUNDBERG/HANSFORD,Northeast corner of RUNDBERG and HANSFORD - Nearside,30.355637,-97.68363,,http://www.capmetro.org/gismaps/stops/1142.html,,,,0
1143,1143,838 RUNDBERG/MIDDLE FISKVILLE,Northeast corner of RUNDBERG and MIDDLE FISKVILLE - Nearside,30.357219,-97.685998,,http://www.capmetro.org/gismaps/stops/1143.html,,,,0
1148,1148,GEORGIAN/HOME PL.,Northwest corner of GEORGIAN and HOME - Nearside,30.355832,-97.696474,,http://www.capmetro.org/gismaps/stops/1148.html,,,,1
1149,1149,GEORGIAN/ELLIOTT,Northwest corner of GEORGIAN and ELLIOTT - Nearside,30.353289,-97.699042,,http://www.capmetro.org/gismaps/stops/1149.html,,,,0
1150,1150,GEORGIAN/JENNIFER,Northwest corner of GEORGIAN and JENNIFER - Nearside,30.349752,-97.702016,,http://www.capmetro.org/gismaps/stops/1150.html,,,,0
1151,1151,GEORGIAN/POWELL,Northwest corner of GEORGIAN and POWELL - Nearside,30.347697,-97.703234,,http://www.capmetro.org/gismaps/stops/1151.html,,,,0
1152,1152,8000 GEORGIAN/ANDERSON,Northwest corner of GEORGIAN and ANDERSON - Nearside,30.344902,-97.704659,,http://www.capmetro.org/gismaps/stops/1152.html,,,,0
1153,1153,7700 NORTHCREST/ANDERSON,Southwest corner of NORTHCREST and ANDERSON - Mid-Block,30.34336,-97.705878,,http://www.capmetro.org/gismaps/stops/1153.html,,,,0
1156,1156,CRESTLAND/MEADOWVIEW,Northeast corner of CRESTLAND and MEADOWVIEW - Nearside,30.339681,-97.711761,,http://www.capmetro.org/gismaps/stops/1156.html,,,,0
1157,1157,7414 GUADALUPE/CRESTLAND,Southwest corner of GUADALUPE and CRESTLAND - Mid-Block,30.339901,-97.713146,,http://www.capmetro.org/gismaps/stops/1157.html,,,,0
1158,1158,7106 GUADALUPE/ST JOHNS,Southwest corner of GUADALUPE and ST JOHNS - Farside,30.337324,-97.714833,,http://www.capmetro.org/gismaps/stops/1158.html,,,,0
1159,1159,GUADALUPE/SWANEE,Northwest corner of GUADALUPE and SWANEE - Nearside,30.335705,-97.715903,,http://www.capmetro.org/gismaps/stops/1159.html,,,,0
1160,1160,105 HIGHLAND MALL/JONATHAN,Southwest corner of HIGHLAND MALL and JONATHAN - Nearside,30.328491,-97.713604,,http://www.capmetro.org/gismaps/stops/1160.html,,,,0
1161,1161,SW - HIGHLAND MALL/MIDDLE FISKVILLE,Southwest corner of HIGHLAND MALL and MIDDLE FISKVILLE - Nearside,30.326239,-97.708752,,http://www.capmetro.org/gismaps/stops/1161.html,,,,0
1162,1162,6200 MIDDLE FISKVILLE/TIRADO,Northwest corner of MIDDLE FISKVILLE and TIRADO - Nearside,30.324286,-97.709741,,http://www.capmetro.org/gismaps/stops/1162.html,,,,0
1163,1163,6000 MIDDLE FISKVILLE/CLAYTON,Northwest corner of MIDDLE FISKVILLE and CLAYTON - Nearside,30.322747,-97.710729,,http://www.capmetro.org/gismaps/stops/1163.html,,,,0
1164,1164,5600 AVENUE F/56TH,Northwest corner of AVENUE F and 56TH - Nearside,30.321167,-97.718996,,http://www.capmetro.org/gismaps/stops/1164.html,,,,0
1165,1165,5500 AVENUE F/55TH,Northwest corner of AVENUE F and 55TH - Nearside,30.319927,-97.719791,,http://www.capmetro.org/gismaps/stops/1165.html,,,,0
1167,1167,303 53RD/AVENUE G,Southeast corner of 53RD and AVENUE G - Farside,30.317091,-97.720114,,http://www.capmetro.org/gismaps/stops/1167.html,,,,0
1168,1168,DUVAL/51ST,Northwest corner of DUVAL and 51ST - Nearside,30.314362,-97.719922,,http://www.capmetro.org/gismaps/stops/1168.html,,,,1
1169,1169,DUVAL/48TH,Northwest corner of DUVAL and 48TH - Nearside,30.310968,-97.722129,,http://www.capmetro.org/gismaps/stops/1169.html,,,,0
1171,1171,DUVAL/43RD,Southwest corner of DUVAL and 43RD - Farside,30.30438,-97.726357,,http://www.capmetro.org/gismaps/stops/1171.html,,,,1
1172,1172,4002 DUVAL/41ST,Southwest corner of DUVAL and 41ST - Mid-Block,30.301674,-97.728038,,http://www.capmetro.org/gismaps/stops/1172.html,,,,1
1174,1174,DUVAL/33RD,Northwest corner of DUVAL and 33RD - Nearside,30.295649,-97.731832,,http://www.capmetro.org/gismaps/stops/1174.html,,,,0
1175,1175,3200 DUVAL/32ND,Northwest corner of DUVAL and 32ND - Nearside,30.294603,-97.732495,,http://www.capmetro.org/gismaps/stops/1175.html,,,,1
1176,1176,DUVAL/30TH,Northwest corner of DUVAL and 30TH - Nearside,30.291876,-97.734222,,http://www.capmetro.org/gismaps/stops/1176.html,,,,1
1177,1177,SAN JACINTO/DEAN KEETON NW CORNER,Northwest corner of SAN JACINTO and DEAN KEETON - Nearside,30.289599,-97.734686,,http://www.capmetro.org/gismaps/stops/1177.html,,,,0
1178,1178,2400 SAN JACINTO/24TH,Northwest corner of SAN JACINTO and 24TH - Nearside,30.287254,-97.733663,,http://www.capmetro.org/gismaps/stops/1178.html,,,,0
1179,1179,2300 SAN JACINTO/23RD,Northwest corner of SAN JACINTO and 23RD - Nearside,30.285505,-97.733783,,http://www.capmetro.org/gismaps/stops/1179.html,,,,0
1180,1180,2100 SAN JACINTO/21ST,Northwest corner of SAN JACINTO and 21ST - Nearside,30.283361,-97.734167,,http://www.capmetro.org/gismaps/stops/1180.html,,,,0
1181,1181,1960 SAN JACINTO/TRINITY,Northwest corner of SAN JACINTO and TRINITY - Mid-Block,30.280661,-97.733899,,http://www.capmetro.org/gismaps/stops/1181.html,,,,0
1186,1186,715 RIVERSIDE/ALAMEDA,Southwest corner of RIVERSIDE and ALAMEDA - Nearside,30.250734,-97.74061,,http://www.capmetro.org/gismaps/stops/1186.html,,,,0
1187,1187,1005 EAST RIVERSIDE/TRAVIS HEIGHTS,Southeast corner of RIVERSIDE and TRAVIS HEIGHTS - Mid-Block,30.24959,-97.738348,,http://www.capmetro.org/gismaps/stops/1187.html,,,,0
1188,1188,RIVERSIDE/KENWOOD,Southwest corner of RIVERSIDE and KENWOOD - Nearside,30.248592,-97.736886,,http://www.capmetro.org/gismaps/stops/1188.html,,,,0
1190,1190,1724 BURTON/WOODLAND,Northwest corner of BURTON and WOODLAND - Nearside,30.236152,-97.728459,,http://www.capmetro.org/gismaps/stops/1190.html,,,,0
1191,1191,1920 BURTON/MARIPOSA,Northwest corner of BURTON and MARIPOSA - Nearside,30.233861,-97.731812,,http://www.capmetro.org/gismaps/stops/1191.html,,,,0
1193,1193,2310 PARKER/OLTORF,Southwest corner of PARKER and OLTORF - Mid-Block,30.231874,-97.737285,,http://www.capmetro.org/gismaps/stops/1193.html,,,,0
1194,1194,2504 PARKER/BRAXTON,Southwest corner of PARKER and BRAXTON - Farside,30.229929,-97.738557,,http://www.capmetro.org/gismaps/stops/1194.html,,,,0
1195,1195,2718 PARKER/ROYAL HILL,Northwest corner of PARKER and ROYAL HILL - Nearside,30.227504,-97.740505,,http://www.capmetro.org/gismaps/stops/1195.html,,,,1
1199,1199,WOODWARD/BEN WHITE NW CORNER,Northwest corner of WOODWARD and BEN WHITE - Nearside,30.217147,-97.744042,,http://www.capmetro.org/gismaps/stops/1199.html,,,,0
1202,1202,FREIDRICH/DIRECTORS,Northwest corner of FREIDRICH and DIRECTORS - Nearside,30.212493,-97.748209,,http://www.capmetro.org/gismaps/stops/1202.html,,,,1
1203,1203,4600 FREIDRICH/ST ELMO,Southwest corner of FREIDRICH and ST ELMO - Mid-Block,30.208183,-97.750908,,http://www.capmetro.org/gismaps/stops/1203.html,,,,0
1204,1204,TERI/FREIDRICH,Southeast corner of TERI and FREIDRICH - Mid-Block,30.202831,-97.753472,,http://www.capmetro.org/gismaps/stops/1204.html,,,,0
1206,1206,5110 PEPPERTREE/PALMERA,Northwest corner of PEPPERTREE and PALMERA - Nearside,30.20012,-97.752016,,http://www.capmetro.org/gismaps/stops/1206.html,,,,0
1207,1207,5502 PEPPERTREE/PEACH,Southwest corner of PEPPERTREE and PEACH - Farside,30.196188,-97.753216,,http://www.capmetro.org/gismaps/stops/1207.html,,,,0
1208,1208,PEPPERTREE/STASSNEY,Northwest corner of PEPPERTREE and STASSNEY - Nearside,30.193624,-97.752548,,http://www.capmetro.org/gismaps/stops/1208.html,,,,0
1212,1212,5406 PLEASANT VALLEY/VILLAGE,Northwest corner of PLEASANT VALLEY and VILLAGE - Nearside,30.193289,-97.744743,,http://www.capmetro.org/gismaps/stops/1212.html,,,,0
1213,1213,5802 PLEASANT VALLEY/LEATHERLEAF,Southwest corner of PLEASANT VALLEY and LEATHERLEAF - Farside,30.18888,-97.745538,,http://www.capmetro.org/gismaps/stops/1213.html,,,,0
1214,1214,6100 PLEASANT VALLEY/DOVE SPRINGS,Southwest corner of PLEASANT VALLEY and DOVE SPRINGS - Mid-Block,30.185358,-97.745648,,http://www.capmetro.org/gismaps/stops/1214.html,,,,0
1215,1215,6406 PLEASANT VALLEY/CREEK BEND,Southwest corner of PLEASANT VALLEY and CREEK BEND - Farside,30.182114,-97.746097,,http://www.capmetro.org/gismaps/stops/1215.html,,,,0
1219,1219,6107 PLEASANT VALLEY/TURNSTONE,Southeast corner of PLEASANT VALLEY and TURNSTONE - Nearside,30.185198,-97.745196,,http://www.capmetro.org/gismaps/stops/1219.html,,,,0
1220,1220,5803 PLEASANT VALLEY/VILLAGE SQUARE,Northeast corner of PLEASANT VALLEY and VILLAGE SQUARE - Farside,30.188891,-97.74529,,http://www.capmetro.org/gismaps/stops/1220.html,,,,0
1221,1221,5505 PLEASANT VALLEY/PALO BLANCO,Northeast corner of PLEASANT VALLEY and PALO BLANCO - Mid-Block,30.192237,-97.744516,,http://www.capmetro.org/gismaps/stops/1221.html,,,,0
1223,1223,2522 STASSNEY/CHAPARRAL,Northeast corner of STASSNEY and CHAPARRAL - Nearside,30.193919,-97.747016,,http://www.capmetro.org/gismaps/stops/1223.html,,,,1
1224,1224,2408 STASSNEY/PALO BLANCO,Northwest corner of STASSNEY and PALO BLANCO - Mid-Block,30.193714,-97.750685,,http://www.capmetro.org/gismaps/stops/1224.html,,,,0
1226,1226,PEPPERTREE/DEADWOOD,Southeast corner of PEPPERTREE and DEADWOOD - Nearside,30.197335,-97.752712,,http://www.capmetro.org/gismaps/stops/1226.html,,,,0
1228,1228,2008 TERI/PEPPER,Northwest corner of TERI and PEPPER - Farside,30.202365,-97.752499,,http://www.capmetro.org/gismaps/stops/1228.html,,,,0
1229,1229,4801 FREIDRICH/TERI,Northeast corner of FREIDRICH and TERI - Farside,30.204466,-97.753036,,http://www.capmetro.org/gismaps/stops/1229.html,,,,0
1230,1230,4601 FREIDRICH/CITY YARD,Northeast corner of FREIDRICH and CITY YARD - Mid-Block,30.208174,-97.750684,,http://www.capmetro.org/gismaps/stops/1230.html,,,,0
1231,1231,4217 FREIDRICH/ST ELMO,Northeast corner of FREIDRICH and ST ELMO - Mid-Block,30.211335,-97.748705,,http://www.capmetro.org/gismaps/stops/1231.html,,,,0
1232,1232,4115 FREIDRICH/WOODWARD,Southwest corner of FREIDRICH and WOODWARD - Nearside,30.213484,-97.746116,,http://www.capmetro.org/gismaps/stops/1232.html,,,,0
1233,1233,WOODWARD/BEN WHITE SE CORNER,Southeast corner of WOODWARD and BEN WHITE - Nearside,30.215081,-97.744146,,http://www.capmetro.org/gismaps/stops/1233.html,,,,0
1235,1235,1901 WOODWARD/PARKER,Northeast corner of WOODWARD and PARKER - Nearside,30.219456,-97.743789,,http://www.capmetro.org/gismaps/stops/1235.html,,,,0
1237,1237,3101 PARKER/WICKSHIRE,Southeast corner of PARKER and WICKSHIRE - Nearside,30.224517,-97.742158,,http://www.capmetro.org/gismaps/stops/1237.html,,,,0
1238,1238,2801 PARKER/ROYAL HILL,Northeast corner of PARKER and ROYAL HILL - Farside,30.227381,-97.740387,,http://www.capmetro.org/gismaps/stops/1238.html,,,,0
1239,1239,2501 PARKER/BRAXTON,Southeast corner of PARKER and BRAXTON - Nearside,30.230144,-97.7382,,http://www.capmetro.org/gismaps/stops/1239.html,,,,1
1240,1240,2301 PARKER/OLTORF,Southeast corner of PARKER and OLTORF - Nearside,30.232116,-97.736934,,http://www.capmetro.org/gismaps/stops/1240.html,,,,0
1242,1242,2001 BURTON/MARIPOSA,Southeast corner of BURTON and MARIPOSA - Nearside,30.233411,-97.731925,,http://www.capmetro.org/gismaps/stops/1242.html,,,,1
1243,1243,BURTON/VALLEY HILL CIR.,Southeast corner of BURTON and VALLEY HILL - Nearside,30.23436,-97.730784,,http://www.capmetro.org/gismaps/stops/1243.html,,,,0
1244,1244,1801 BURTON/WOODLAND,Southeast corner of BURTON and WOODLAND - Nearside,30.235764,-97.72851,,http://www.capmetro.org/gismaps/stops/1244.html,,,,0
1246,1246,1000 EAST RIVERSIDE/TRAVIS HEIGHTS,Northeast corner of RIVERSIDE and TRAVIS HEIGHTS - Nearside,30.249906,-97.738594,,http://www.capmetro.org/gismaps/stops/1246.html,,,,0
1249,1249,150 RIVERSIDE/NEWNING,Northwest corner of RIVERSIDE and NEWNING - Mid-Block,30.255868,-97.74546,,http://www.capmetro.org/gismaps/stops/1249.html,,,,0
1253,1253,2031 SAN JACINTO/21ST,Southeast corner of SAN JACINTO and 21ST - Nearside,30.283104,-97.73391,,http://www.capmetro.org/gismaps/stops/1253.html,,,,0
1255,1255,2329 SAN JACINTO/24TH,Southeast corner of SAN JACINTO and 24TH - Nearside,30.28694,-97.733427,,http://www.capmetro.org/gismaps/stops/1255.html,,,,0
1256,1256,2525 SAN JACINTO/DEAN KEETON,Southeast corner of SAN JACINTO and DEAN KEETON - Nearside,30.288776,-97.734397,,http://www.capmetro.org/gismaps/stops/1256.html,,,,0
1257,1257,DUVAL/BELLEVUE,Northeast corner of DUVAL and BELLEVUE - Farside,30.292127,-97.733917,,http://www.capmetro.org/gismaps/stops/1257.html,,,,0
1258,1258,DUVAL/32ND,Southeast corner of DUVAL and 32ND - Mid-Block,30.293384,-97.733108,,http://www.capmetro.org/gismaps/stops/1258.html,,,,1
1259,1259,DUVAL/HARRIS,Southeast corner of DUVAL and HARRIS - Nearside,30.29591,-97.73149,,http://www.capmetro.org/gismaps/stops/1259.html,,,,1
1260,1260,3717 DUVAL/38TH,Southeast corner of DUVAL and 38TH - Nearside,30.298515,-97.729831,,http://www.capmetro.org/gismaps/stops/1260.html,,,,1
1261,1261,4017 DUVAL/41ST,Southeast corner of DUVAL and 41ST - Nearside,30.30214,-97.727604,,http://www.capmetro.org/gismaps/stops/1261.html,,,,0
1262,1262,DUVAL/PARK,Northeast corner of DUVAL and PARK - Farside,30.304132,-97.726358,,http://www.capmetro.org/gismaps/stops/1262.html,,,,1
1263,1263,4433 DUVAL/45TH,Southeast corner of DUVAL and 45TH - Nearside,30.306896,-97.724576,,http://www.capmetro.org/gismaps/stops/1263.html,,,,1
1264,1264,4533 DUVAL/45TH,Northeast corner of DUVAL and 45TH - Mid-Block,30.308301,-97.723678,,http://www.capmetro.org/gismaps/stops/1264.html,,,,0
1265,1265,4803 DUVAL/48TH STREET,Northeast corner of DUVAL and 48TH - Farside,30.311174,-97.721789,,http://www.capmetro.org/gismaps/stops/1265.html,,,,0
1266,1266,DUVAL/50TH,Southeast corner of DUVAL and 50TH - Nearside,30.313021,-97.720609,,http://www.capmetro.org/gismaps/stops/1266.html,,,,0
1267,1267,DUVAL/BRUNING,Northeast corner of DUVAL and BRUNING - Farside,30.314435,-97.719695,,http://www.capmetro.org/gismaps/stops/1267.html,,,,1
1268,1268,304 53RD/AVENUE H,Northwest corner of 53RD and AVENUE H - Farside,30.317016,-97.719635,,http://www.capmetro.org/gismaps/stops/1268.html,,,,0
1270,1270,5501 AVENUE F/55TH,Northeast corner of AVENUE F and 55TH - Farside,30.320014,-97.719595,,http://www.capmetro.org/gismaps/stops/1270.html,,,,0
1271,1271,5613 AVENUE F/KOENIG,Southeast corner of AVENUE F and KOENIG - Nearside,30.321598,-97.71873,,http://www.capmetro.org/gismaps/stops/1271.html,,,,0
1273,1273,6902 AIRPORT BLVD/GUADALUPE,Northeast corner of AIRPORT and GUADALUPE - Mid-Block,30.333896,-97.716766,,http://www.capmetro.org/gismaps/stops/1273.html,,,,0
1274,1274,GUADALUPE/KENNISTSON,Southeast corner of GUADALUPE and KENNISTSON - Nearside,30.334694,-97.716377,,http://www.capmetro.org/gismaps/stops/1274.html,,,,0
1275,1275,7125 GUADALUPE/ST JOHNS,Southeast corner of GUADALUPE and ST JOHNS - Nearside,30.337671,-97.714427,,http://www.capmetro.org/gismaps/stops/1275.html,,,,0
1276,1276,7417 GUADALUPE/CRESTLAND,Southeast corner of GUADALUPE and CRESTLAND - Nearside,30.339996,-97.712898,,http://www.capmetro.org/gismaps/stops/1276.html,,,,0
1278,1278,7601 NORTHCREST/PRAIRIE DELL,Southeast corner of NORTHCREST and PRAIRIE DELL - Nearside,30.340632,-97.708421,,http://www.capmetro.org/gismaps/stops/1278.html,,,,0
1282,1282,GEORGIAN/RED OAK,Northeast corner of GEORGIAN and RED OAK - Farside,30.349494,-97.702006,,http://www.capmetro.org/gismaps/stops/1282.html,,,,0
1283,1283,GEORGIAN/WALNUT,Northeast corner of GEORGIAN and WALNUT - Farside,30.351297,-97.700509,,http://www.capmetro.org/gismaps/stops/1283.html,,,,0
1284,1284,GEORGIAN/LITTLE WALNUT,Northeast corner of GEORGIAN and LITTLE WALNUT - Farside,30.353431,-97.698728,,http://www.capmetro.org/gismaps/stops/1284.html,,,,1
1285,1285,GEORGIAN/HOME PLACE,Northeast corner of GEORGIAN and HOME - Mid-Block,30.356009,-97.696169,,http://www.capmetro.org/gismaps/stops/1285.html,,,,0
1286,1286,9013 GEORGIAN/FAWNRIDGE,Southeast corner of GEORGIAN and FAWNRIDGE - Nearside,30.358122,-97.694809,,http://www.capmetro.org/gismaps/stops/1286.html,,,,0
1288,1288,9309 GEORGIAN/RUNDBERG,Southeast corner of GEORGIAN and RUNDBERG - Nearside,30.360565,-97.693496,,http://www.capmetro.org/gismaps/stops/1288.html,,,,0
1289,1289,307 RUNDBERG/NORTH CREEK,Southwest corner of RUNDBERG and NORTH CREEK - Nearside,30.360039,-97.692027,,http://www.capmetro.org/gismaps/stops/1289.html,,,,0
1290,1290,829 RUNDBERG/MIDDLE FISKVILLE,Southwest corner of RUNDBERG and MIDDLE FISKVILLE - Nearside,30.357385,-97.686663,,http://www.capmetro.org/gismaps/stops/1290.html,,,,1
1307,1307,1041 ST JOHNS/MEADOR,Southwest corner of ST JOHNS and MEADOR - Nearside,30.32904,-97.69637,,http://www.capmetro.org/gismaps/stops/1307.html,,,,0
1308,1308,1127 ST JOHNS/GRAND CANYON,Southwest corner of ST JOHNS and GRAND CANYON - Nearside,30.32813,-97.69448,,http://www.capmetro.org/gismaps/stops/1308.html,,,,0
1310,1310,1411 CORONADO HILLS/CAMERON,Southeast corner of CORONADO HILLS and CAMERON - Mid-Block,30.328651,-97.689818,,http://www.capmetro.org/gismaps/stops/1310.html,,,,0
1311,1311,1501 CORONADO HILLS/CAMERON,Southeast corner of CORONADO HILLS and CAMERON - Mid-Block,30.327187,-97.688433,,http://www.capmetro.org/gismaps/stops/1311.html,,,,0
1312,1312,7220 BERKMAN/REAGAN HILL,Southwest corner of BERKMAN and REAGAN HILL - Mid-Block,30.325437,-97.688877,,http://www.capmetro.org/gismaps/stops/1312.html,,,,0
1313,1313,BERKMAN/US 290 NW CORNER,Northwest corner of BERKMAN and US 290 - Nearside,30.3223,-97.68924,,http://www.capmetro.org/gismaps/stops/1313.html,,,,0
1316,1316,6208 BERKMAN/GLEN VALLEY,Northwest corner of BERKMAN and GLEN VALLEY - Nearside,30.316364,-97.691275,,http://www.capmetro.org/gismaps/stops/1316.html,,,,0
1318,1318,5810 BERKMAN/SWEETBRIAR,Southwest corner of BERKMAN and SWEETBRIAR - Farside,30.312311,-97.693666,,http://www.capmetro.org/gismaps/stops/1318.html,,,,0
1319,1319,BERKMAN/CLOVERLEAF,Northwest corner of BERKMAN and CLOVERLEAF - Nearside,30.309342,-97.695539,,http://www.capmetro.org/gismaps/stops/1319.html,,,,0
1321,1321,1907 ROGGE/RIDGEMONT,Southwest corner of ROGGE and RIDGEMONT - Nearside,30.30705,-97.692928,,http://www.capmetro.org/gismaps/stops/1321.html,,,,0
1322,1322,1935 ROGGE/WESTMINSTER,Southwest corner of ROGGE and WESTMINSTER - Nearside,30.307746,-97.690136,,http://www.capmetro.org/gismaps/stops/1322.html,,,,0
1323,1323,2305 ROGGE/WIGHT,Southeast corner of ROGGE and WIGHT - Farside,30.307017,-97.686644,,http://www.capmetro.org/gismaps/stops/1323.html,,,,0
1324,1324,2801 ROGGE/MANOR,Southwest corner of ROGGE and MANOR - Nearside,30.30466,-97.681716,,http://www.capmetro.org/gismaps/stops/1324.html,,,,0
1325,1325,3109 ROGGE/REICHER,Southeast corner of ROGGE and REICHER - Farside,30.302655,-97.677548,,http://www.capmetro.org/gismaps/stops/1325.html,,,,0
1326,1326,3505 ROGGE/SPRINGDALE,Southwest corner of ROGGE and SPRINGDALE - Nearside,30.300744,-97.673576,,http://www.capmetro.org/gismaps/stops/1326.html,,,,1
1327,1327,SPRINGDALE/CHADWYCK,Southwest corner of SPRINGDALE and CHADWYCK - Mid-Block,30.298516,-97.674659,,http://www.capmetro.org/gismaps/stops/1327.html,,,,0
1328,1328,5322 SPRINGDALE/NORWOOD HILL,Southwest corner of SPRINGDALE and NORWOOD HILL - Farside,30.296984,-97.675773,,http://www.capmetro.org/gismaps/stops/1328.html,,,,0
1329,1329,5100 SPRINGDALE/51ST,Northwest corner of SPRINGDALE and 51ST - Nearside,30.293871,-97.677744,,http://www.capmetro.org/gismaps/stops/1329.html,,,,0
1330,1330,4612 SPRINGDALE/TOUCHSTONE,Northwest corner of SPRINGDALE and TOUCHSTONE - Nearside,30.289603,-97.680296,,http://www.capmetro.org/gismaps/stops/1330.html,,,,0
1331,1331,4300 SPRINGDALE/MARTIN LUTHER KING,Northwest corner of SPRINGDALE and MARTIN LUTHER KING - Nearside,30.286134,-97.682608,,http://www.capmetro.org/gismaps/stops/1331.html,,,,0
1332,1332,SPRINGDALE/OAK CLIFF,Northwest corner of SPRINGDALE and OAK CLIFF - Nearside,30.285006,-97.683281,,http://www.capmetro.org/gismaps/stops/1332.html,,,,0
1333,1333,SPRINGDALE/KITTY,Southwest corner of SPRINGDALE and KITTY - Farside,30.283131,-97.684516,,http://www.capmetro.org/gismaps/stops/1333.html,,,,0
1334,1334,SPRINGDALE/GLOMAR,Northwest corner of SPRINGDALE and GLOMAR - Nearside,30.281879,-97.685305,,http://www.capmetro.org/gismaps/stops/1334.html,,,,0
1335,1335,1200 SPRINGDALE/12TH,Northwest corner of SPRINGDALE and 12TH - Nearside,30.279234,-97.686965,,http://www.capmetro.org/gismaps/stops/1335.html,,,,0
1336,1336,1150 SPRINGDALE/WEBBERVILLE,Northwest corner of SPRINGDALE and WEBBERVILLE - Nearside,30.276735,-97.688489,,http://www.capmetro.org/gismaps/stops/1336.html,,,,0
1337,1337,1106 SPRINGDALE/LEDESMA,Northwest corner of SPRINGDALE and LEDESMA - Nearside,30.274303,-97.69009,,http://www.capmetro.org/gismaps/stops/1337.html,,,,0
1338,1338,1050 SPRINGDALE/PROCK,Northwest corner of SPRINGDALE and PROCK - Nearside,30.270901,-97.692225,,http://www.capmetro.org/gismaps/stops/1338.html,,,,0
1339,1339,1018 SPRINGDALE/GOODWIN,Northwest corner of SPRINGDALE and GOODWIN - Nearside,30.267579,-97.694349,,http://www.capmetro.org/gismaps/stops/1339.html,,,,0
1340,1340,1006 SPRINGDALE/AIRPORT,Northwest corner of SPRINGDALE and AIRPORT - Nearside,30.266136,-97.695276,,http://www.capmetro.org/gismaps/stops/1340.html,,,,1
1341,1341,3600 GOVALLE/GUNTER,Northeast corner of GOVALLE and GUNTER - Nearside,30.264829,-97.698664,,http://www.capmetro.org/gismaps/stops/1341.html,,,,0
1342,1342,3200 GOVALLE/TILLERY,Northeast corner of GOVALLE and TILLERY - Nearside,30.26602,-97.70202,,http://www.capmetro.org/gismaps/stops/1342.html,,,,1
1345,1345,3000 WEBBERVILLE/PLEASANT VALLEY,Southwest corner of WEBBERVILLE and PLEASANT VALLEY - Mid-Block,30.266307,-97.708561,,http://www.capmetro.org/gismaps/stops/1345.html,,,,0
1346,1346,850 PLEASANT VALLEY/WEBBERVILLE,Southeast corner of PLEASANT VALLEY and WEBBERVILLE - Farside,30.26516,-97.70881,,http://www.capmetro.org/gismaps/stops/1346.html,,,,1
1347,1347,820 PLEASANT VALLEY/LYONS,Southwest corner of PLEASANT VALLEY and LYONS - Mid-Block,30.26365,-97.70834,,http://www.capmetro.org/gismaps/stops/1347.html,,,,0
1348,1348,734 PLEASANT VALLEY/PRADO,Southwest corner of PLEASANT VALLEY and PRADO - Mid-Block,30.261519,-97.709049,,http://www.capmetro.org/gismaps/stops/1348.html,,,,1
1349,1349,650 PLEASANT VALLEY/7TH,Southwest corner of PLEASANT VALLEY and 7TH - Farside,30.259735,-97.709729,,http://www.capmetro.org/gismaps/stops/1349.html,,,,0
1351,1351,208 PLEASANT VALLEY/3RD,Southwest corner of PLEASANT VALLEY and 3RD - Farside,30.254448,-97.712218,,http://www.capmetro.org/gismaps/stops/1351.html,,,,0
1352,1352,104 PLEASANT VALLEY/CESAR CHAVEZ,Northwest corner of PLEASANT VALLEY and CESAR CHAVEZ - Nearside,30.253275,-97.712766,,http://www.capmetro.org/gismaps/stops/1352.html,,,,0
1353,1353,1108 PLEASANT VALLEY/LAKESHORE,Southwest corner of PLEASANT VALLEY and LAKESHORE - Farside,30.242025,-97.717608,,http://www.capmetro.org/gismaps/stops/1353.html,,,,0
1356,1356,2502 OLTORF/PLEASANT VALLEY,Northwest corner of OLTORF and PLEASANT VALLEY - Farside,30.227843,-97.728279,,http://www.capmetro.org/gismaps/stops/1356.html,,,,0
1358,1358,2030 OLTORF/WILLOW CREEK,Northwest corner of OLTORF and WILLOW CREEK - Mid-Block,30.230518,-97.732354,,http://www.capmetro.org/gismaps/stops/1358.html,,,,0
1359,1359,2201 BURTON/OLTORF,Northeast corner of BURTON and OLTORF - Farside,30.231208,-97.73355,,http://www.capmetro.org/gismaps/stops/1359.html,,,,1
1361,1361,BURTON/RIVERSIDE,Southeast corner of BURTON and RIVERSIDE - Mid-Block,30.239196,-97.727578,,http://www.capmetro.org/gismaps/stops/1361.html,,,,1
1364,1364,1100 PLEASANT VALLEY/LAKESHORE,Southeast corner of PLEASANT VALLEY and LAKESHORE - Nearside,30.242291,-97.717206,,http://www.capmetro.org/gismaps/stops/1364.html,,,,0
1365,1365,517 PLEASANT VALLEY (KRIEG FIELD),Southeast corner of PLEASANT VALLEY and CANTERBURY - Nearside,30.245846,-97.714948,,http://www.capmetro.org/gismaps/stops/1365.html,,,,0
1366,1366,PLEASANT VALLEY/2ND,Southeast corner of PLEASANT VALLEY and 2ND - Nearside,30.25371,-97.712369,,http://www.capmetro.org/gismaps/stops/1366.html,,,,1
1367,1367,301 PLEASANT VALLEY/3RD,Northeast corner of PLEASANT VALLEY and 3RD - Farside,30.255151,-97.7117,,http://www.capmetro.org/gismaps/stops/1367.html,,,,1
1368,1368,501 PLEASANT VALLEY/5TH (CAPMETRO),Northeast corner of PLEASANT VALLEY and 5TH - Mid-Block,30.257417,-97.710603,,http://www.capmetro.org/gismaps/stops/1368.html,,,,0
1369,1369,651 PLEASANT VALLEY/7TH,Southeast corner of PLEASANT VALLEY and 7TH - Nearside,30.259868,-97.709478,,http://www.capmetro.org/gismaps/stops/1369.html,,,,0
1372,1372,819 PLEASANT VALLEY/LYONS,Southeast corner of PLEASANT VALLEY and LYONS - Mid-Block,30.263527,-97.708225,,http://www.capmetro.org/gismaps/stops/1372.html,,,,1
1373,1373,851 PLEASANT VALLEY/WEBBERVILLE,Northeast corner of PLEASANT VALLEY and WEBBERVILLE - Nearside,30.2653,-97.70876,,http://www.capmetro.org/gismaps/stops/1373.html,,,,1
1377,1377,3601 GOVALLE/GUNTER,Southeast corner of GOVALLE and GUNTER - Farside,30.264616,-97.698463,,http://www.capmetro.org/gismaps/stops/1377.html,,,,0
1379,1379,1017 SPRINGDALE/GOODWIN,Southeast corner of SPRINGDALE and GOODWIN - Nearside,30.267208,-97.694408,,http://www.capmetro.org/gismaps/stops/1379.html,,,,0
1381,1381,1053 SPRINGDALE/PROCK,Northeast corner of SPRINGDALE and PROCK - Farside,30.27106,-97.69193,,http://www.capmetro.org/gismaps/stops/1381.html,,,,0
1382,1382,1107 SPRINGDALE/LEDESMA,Northeast corner of SPRINGDALE and LEDESMA - Farside,30.274299,-97.689894,,http://www.capmetro.org/gismaps/stops/1382.html,,,,0
1383,1383,1161 SPRINGDALE/WEBBERVILLE,Northeast corner of SPRINGDALE and WEBBERVILLE - Mid-Block,30.277096,-97.688064,,http://www.capmetro.org/gismaps/stops/1383.html,,,,0
1384,1384,1207 SPRINGDALE/12TH,Northeast corner of SPRINGDALE and 12TH - Mid-Block,30.279924,-97.686346,,http://www.capmetro.org/gismaps/stops/1384.html,,,,0
1385,1385,SPRINGDALE/LESLIE,Southeast corner of SPRINGDALE and LESLIE - Nearside,30.282374,-97.684815,,http://www.capmetro.org/gismaps/stops/1385.html,,,,0
1386,1386,SPRINGDALE/BANDERA,Southeast corner of SPRINGDALE and BANDERA - Nearside,30.283988,-97.683748,,http://www.capmetro.org/gismaps/stops/1386.html,,,,0
1387,1387,1819 SPRINGDALE/MARTIN LUTHER KING,Southeast corner of SPRINGDALE and MARTIN LUTHER KING - Nearside,30.28557,-97.68273,,http://www.capmetro.org/gismaps/stops/1387.html,,,,0
1388,1388,5101 SPRINGDALE/51ST,Northeast corner of SPRINGDALE and 51ST - Farside,30.29386,-97.67757,,http://www.capmetro.org/gismaps/stops/1388.html,,,,0
1389,1389,5401 SPRINGDALE/NORWOOD HILL,Northeast corner of SPRINGDALE and NORWOOD HILL - Farside,30.297446,-97.675242,,http://www.capmetro.org/gismaps/stops/1389.html,,,,0
1390,1390,3506 ROGGE/SPRINGDALE,Northwest corner of ROGGE and SPRINGDALE - Farside,30.300896,-97.673522,,http://www.capmetro.org/gismaps/stops/1390.html,,,,1
1391,1391,3100 ROGGE/REICHER,Northeast corner of ROGGE and REICHER - Nearside,30.302753,-97.677408,,http://www.capmetro.org/gismaps/stops/1391.html,,,,0
1392,1392,2806 ROGGE/MANOR,Northwest corner of ROGGE and MANOR - Mid-Block,30.304865,-97.681812,,http://www.capmetro.org/gismaps/stops/1392.html,,,,0
1393,1393,2000 ROGGE/WESTMINSTER,Northeast corner of ROGGE and WESTMINSTER - Nearside,30.307945,-97.689927,,http://www.capmetro.org/gismaps/stops/1393.html,,,,0
1394,1394,1908 ROGGE/RIDGEMONT,Northwest corner of ROGGE and RIDGEMONT - Farside,30.307165,-97.693007,,http://www.capmetro.org/gismaps/stops/1394.html,,,,0
1396,1396,BERKMAN/LARKWOOD,Southeast corner of BERKMAN and LARKWOOD - Nearside,30.31036,-97.69473,,http://www.capmetro.org/gismaps/stops/1396.html,,,,0
1398,1398,6001 BERKMAN/BRIARCLIFF,Northeast corner of BERKMAN and BRIARCLIFF - Farside,30.314779,-97.692038,,http://www.capmetro.org/gismaps/stops/1398.html,,,,0
1399,1399,6207 BERKMAN/GLEN VALLEY,Northeast corner of BERKMAN and GLEN VALLEY - Farside,30.31646,-97.691029,,http://www.capmetro.org/gismaps/stops/1399.html,,,,0
1400,1400,6509 BERKMAN/WHELESS,Northeast corner of BERKMAN and WHELESS - Farside,30.318728,-97.689634,,http://www.capmetro.org/gismaps/stops/1400.html,,,,0
1401,1401,BERKMAN/US 290 SE CORNER,Southeast corner of BERKMAN and US 290 - Nearside,30.320741,-97.688771,,http://www.capmetro.org/gismaps/stops/1401.html,,,,0
1402,1402,BERKMAN/US 290 NE CORNER,Northeast corner of BERKMAN and US 290 - Farside,30.32244,-97.68899,,http://www.capmetro.org/gismaps/stops/1402.html,,,,0
1404,1404,7249 BERKMAN/REAGAN HILL,Southeast corner of BERKMAN and REAGAN HILL - Nearside,30.325726,-97.688497,,http://www.capmetro.org/gismaps/stops/1404.html,,,,0
1405,1405,CORONADO HILLS/BERKMAN,Northwest corner of CORONADO HILLS and BERKMAN - Farside,30.32728,-97.688257,,http://www.capmetro.org/gismaps/stops/1405.html,,,,0
1406,1406,1430 CORONADO HILLS/CAMERON,Northeast corner of CORONADO HILLS and CAMERON - Nearside,30.328718,-97.689587,,http://www.capmetro.org/gismaps/stops/1406.html,,,,0
1407,1407,7200 CAMERON/ST JOHNS,Northwest corner of CAMERON and ST JOHNS - Nearside,30.32629,-97.69233,,http://www.capmetro.org/gismaps/stops/1407.html,,,,0
1408,1408,1034 ST JOHNS/MEADOR,Northwest corner of ST JOHNS and MEADOR - Farside,30.32925,-97.69644,,http://www.capmetro.org/gismaps/stops/1408.html,,,,0
1409,1409,1008 ST JOHNS/BETHUNE,Northwest corner of ST JOHNS and BETHUNE - Farside,30.33032,-97.69854,,http://www.capmetro.org/gismaps/stops/1409.html,,,,0
1410,1410,900 ST JOHNS/BENNETT,Northeast corner of ST JOHNS and BENNETT - Nearside,30.331118,-97.700252,,http://www.capmetro.org/gismaps/stops/1410.html,,,,0
1412,1412,7100 ROLAND JOHNSON/ST JOHNS,Southwest corner of ROLAND JOHNSON and ST JOHNS - Mid-Block,30.333115,-97.706119,,http://www.capmetro.org/gismaps/stops/1412.html,,,,0
1413,1413,6970 ROLAND JOHNSON/HUNTLAND,Northwest corner of ROLAND JOHNSON and HUNTLAND - Nearside,30.33089,-97.706991,,http://www.capmetro.org/gismaps/stops/1413.html,,,,0
1414,1414,300 HUNTLAND/BRENDA,Northeast corner of HUNTLAND and BRENDA - Nearside,30.330854,-97.710681,,http://www.capmetro.org/gismaps/stops/1414.html,,,,0
1415,1415,6500 JONATHAN DR (HIGHLAND MALL),Northwest corner of JONATHON and HIGHLAND MALL - Nearside,30.328767,-97.713056,,http://www.capmetro.org/gismaps/stops/1415.html,,,,1
1417,1417,7401 LAMAR/ST JOHNS,Northeast corner of LAMAR and ST JOHNS - Mid-Block,30.341113,-97.716607,,http://www.capmetro.org/gismaps/stops/1417.html,,,,0
1423,1423,EXPOSITION/WARREN,Northwest corner of EXPOSITION and WARREN - Nearside,30.309449,-97.762901,,http://www.capmetro.org/gismaps/stops/1423.html,,,,0
1424,1424,EXPOSITION/MOUNTAIN LAUREL,Northwest corner of EXPOSITION and MOUNTAIN LAUREL - Nearside,30.307646,-97.763395,,http://www.capmetro.org/gismaps/stops/1424.html,,,,0
1425,1425,EXPOSITION/NORTHWOOD,Northwest corner of EXPOSITION and NORTHWOOD - Nearside,30.305496,-97.764927,,http://www.capmetro.org/gismaps/stops/1425.html,,,,0
1426,1426,2728 EXPOSITION (CASIS ELEMENTARY),Southwest corner of EXPOSITION and NORTHWOOD - Mid-Block,30.30379,-97.764542,,http://www.capmetro.org/gismaps/stops/1426.html,,,,0
1427,1427,EXPOSITION/MCCULLOUGH,Northwest corner of EXPOSITION and MCCULLOUGH - Nearside,30.301361,-97.765335,,http://www.capmetro.org/gismaps/stops/1427.html,,,,0
1428,1428,2500 EXPOSITION/BOWMAN,Northwest corner of EXPOSITION and BOWMAN - Nearside,30.298075,-97.767427,,http://www.capmetro.org/gismaps/stops/1428.html,,,,0
1440,1440,2525 ENFIELD/NORWALK,Southeast corner of ENFIELD and NORWALK - Farside,30.289983,-97.7712,,http://www.capmetro.org/gismaps/stops/1440.html,,,,0
1444,1444,1801 ENFIELD/HARTFORD,Southwest corner of ENFIELD and HARTFORD - Nearside,30.284786,-97.762233,,http://www.capmetro.org/gismaps/stops/1444.html,,,,0
1446,1446,1603 ENFIELD/WEST LYNN,Southwest corner of ENFIELD and WEST LYNN - Nearside,30.282771,-97.758105,,http://www.capmetro.org/gismaps/stops/1446.html,,,,0
1448,1448,12TH/EASON,Southwest corner of 12TH and EASON - Nearside,30.279978,-97.758783,,http://www.capmetro.org/gismaps/stops/1448.html,,,,0
1450,1450,1201 12TH/BLANCO,Southwest corner of 12TH and BLANCO - Nearside,30.277843,-97.754367,,http://www.capmetro.org/gismaps/stops/1450.html,,,,1
1451,1451,1001 12TH/LAMAR,Southwest corner of 12TH and LAMAR - Nearside,30.276845,-97.751568,,http://www.capmetro.org/gismaps/stops/1451.html,,,,0
1453,1453,701 12TH/RIO GRANDE,Southwest corner of 12TH and RIO GRANDE - Nearside,30.27571,-97.747549,,http://www.capmetro.org/gismaps/stops/1453.html,,,,1
1465,1465,OLTORF/ALTA VISTA,Southeast corner of OLTORF and ALTA VISTA - Farside,30.23632,-97.74719,,http://www.capmetro.org/gismaps/stops/1465.html,,,,0
1466,1466,1101 OLTORF/ALTA VISTA,Southeast corner of OLTORF and ALTA VISTA - Mid-Block,30.235651,-97.745688,,http://www.capmetro.org/gismaps/stops/1466.html,,,,0
1467,1467,1313 OLTORF/SCHRIBER,Southeast corner of OLTORF and SCHRIBER - Mid-Block,30.234202,-97.743018,,http://www.capmetro.org/gismaps/stops/1467.html,,,,0
1474,1474,1605 OLTORF/IH 35,Southeast corner of OLTORF and IH 35 - Mid-Block,30.23322,-97.739459,,http://www.capmetro.org/gismaps/stops/1474.html,,,,0
1475,1475,1747 OLTORF/PARKER,Southwest corner of OLTORF and PARKER - Nearside,30.232279,-97.737098,,http://www.capmetro.org/gismaps/stops/1475.html,,,,0
